{"64319":{"blu_id":64319,"category":"Company Vehicle","lat":41.91005,"lon":-87.703095,"created_at":"2023-12-08T18:00:45.000+00:00","address_street":"3016-3018 West North Avenue","address_zip":"60302","neighborhood":null,"suburb":"Humboldt Park","images":["https://feed.bikelaneuprising.com/64319/attyHykkU9ZU2ZXeA_large.jpg","https://feed.bikelaneuprising.com/64319/attqHuxFYtywOcyKp_large.jpg","https://feed.bikelaneuprising.com/64319/attnPWhpsvPahRQqI_large.jpg"],"reporter_id":1},"64320":{"blu_id":64320,"category":"Company Vehicle","lat":41.890908333333336,"lon":-87.64724666666666,"created_at":"2023-12-08T18:02:57.000+00:00","address_street":"494 North Milwaukee Avenue","address_zip":"60661","neighborhood":null,"suburb":"West Town","images":["https://feed.bikelaneuprising.com/64320/attRQCSeju72QU4W7_large.jpg","https://feed.bikelaneuprising.com/64320/attHEh53624tKTNsn_large.jpg","https://feed.bikelaneuprising.com/64320/attiCO1I1VwMJtZfn_large.jpg"],"reporter_id":1},"64322":{"blu_id":64322,"category":"Private Owner Vehicle","lat":41.892003333333335,"lon":-87.64869666666667,"created_at":"2023-12-08T18:21:02.000+00:00","address_street":"529 North Milwaukee Avenue","address_zip":"60661","neighborhood":null,"suburb":"West Town","images":["https://feed.bikelaneuprising.com/64322/attAX4bnlBnpHsuP5_large.jpg"],"reporter_id":1},"64323":{"blu_id":64323,"category":"Private Owner Vehicle","lat":41.8640218,"lon":-87.6558768,"created_at":"2023-12-08T18:23:55.000+00:00","address_street":"1360 South Blue Island Avenue","address_zip":"60608","neighborhood":"University Village/Little Italy","suburb":"Near West Side","images":["https://feed.bikelaneuprising.com/64323/attFioyRZxgANhWhS_large.jpg"],"reporter_id":1},"64324":{"blu_id":64324,"category":"Private Owner Vehicle","lat":41.91901333333333,"lon":-87.69106333333333,"created_at":"2023-12-08T19:34:41.000+00:00","address_street":"2074 North Milwaukee Avenue","address_zip":"60647","neighborhood":null,"suburb":"Logan Square","images":["https://feed.bikelaneuprising.com/64324/attFJfTfVcJPEaCD3_large.jpg"],"reporter_id":1},"64333":{"blu_id":64333,"category":"Private Owner Vehicle","lat":41.9066366,"lon":-87.6716749,"created_at":"2023-12-08T21:55:45.000+00:00","address_street":"1366 North Milwaukee Avenue","address_zip":"60622","neighborhood":"Wicker Park","suburb":"West Town","images":["https://feed.bikelaneuprising.com/64333/attJYXun4YjQ3y7ai_large.jpg"],"reporter_id":1},"64334":{"blu_id":64334,"category":"Company Vehicle","lat":41.9045101,"lon":-87.6682964,"created_at":"2023-12-08T21:59:11.000+00:00","address_street":"1246-1250 North Milwaukee Avenue","address_zip":"60622","neighborhood":"Wicker Park","suburb":"West Town","images":["https://feed.bikelaneuprising.com/64334/attRJ4VF9pqU3Pqqd_large.jpg","https://feed.bikelaneuprising.com/64334/att0bhutclCC8Dfdp_large.jpg"],"reporter_id":1},"64335":{"blu_id":64335,"category":"Municipal (city) Vehicle - includes USPS","lat":41.8892,"lon":-87.634225,"created_at":"2023-12-08T22:11:03.000+00:00","address_street":" West Kinzie Street","address_zip":"60654","neighborhood":"Chicago River North","suburb":"Near North Side","images":["https://feed.bikelaneuprising.com/64335/attWVjwpkqpiKHpQ4_large.jpg"],"reporter_id":1},"64336":{"blu_id":64336,"category":"Municipal (city) Vehicle - includes USPS","lat":41.8641196,"lon":-87.6558854,"created_at":"2023-12-09T02:56:12.000+00:00","address_street":"1360 South Blue Island Avenue","address_zip":"60608","neighborhood":"University Village/Little Italy","suburb":"Near West Side","images":["https://feed.bikelaneuprising.com/64336/attOBVjCtwNQb5rnk_large.jpg"],"reporter_id":1},"64338":{"blu_id":64338,"category":"Private Owner Vehicle","lat":41.8943711,"lon":-87.6526007,"created_at":"2023-12-09T07:45:07.000+00:00","address_street":"1005-1009 West Huron Street","address_zip":"60622","neighborhood":null,"suburb":"West Town","images":["https://feed.bikelaneuprising.com/64338/attkj94j1jJVULL8B_large.jpg"],"reporter_id":1},"64351":{"blu_id":64351,"category":"Company Vehicle","lat":41.88901,"lon":-87.63562,"created_at":"2023-12-09T19:59:19.000+00:00","address_street":" West Kinzie Street","address_zip":"60654","neighborhood":"Chicago River North","suburb":"Near North Side","images":["https://feed.bikelaneuprising.com/64351/attQpybsb4e3m5CdE_large.jpg"],"reporter_id":1},"64352":{"blu_id":64352,"category":"Private Owner Vehicle","lat":41.88901,"lon":-87.63562,"created_at":"2023-12-09T20:00:44.000+00:00","address_street":" West Kinzie Street","address_zip":"60654","neighborhood":"Chicago River North","suburb":"Near North Side","images":["https://feed.bikelaneuprising.com/64352/attvVK6wIAiDBmXo8_large.jpg"],"reporter_id":1},"64354":{"blu_id":64354,"category":"Private Owner Vehicle","lat":41.8966,"lon":-87.62976,"created_at":"2023-12-09T20:59:55.000+00:00","address_street":" North Dearborn Street","address_zip":"60654","neighborhood":"Magnificent Mile","suburb":"Near North Side","images":["https://feed.bikelaneuprising.com/64354/att0Dy84hbumjkix4_large.jpg"],"reporter_id":1},"64355":{"blu_id":64355,"category":"Other  (damaged lane / snow / debris / pedestrian / etc.)","lat":41.939458614854274,"lon":-87.70360265479258,"created_at":"2023-12-09T21:25:16.000+00:00","address_street":"3020 West Belmont Avenue","address_zip":"60618","neighborhood":null,"suburb":"Avondale","images":["https://feed.bikelaneuprising.com/64355/attigvKbtHW8sZanK_large.jpg"],"reporter_id":1},"64368":{"blu_id":64368,"category":"Private Owner Vehicle","lat":41.92862213437119,"lon":-87.67888002097608,"created_at":"2023-12-10T00:27:10.000+00:00","address_street":"2601-2609 North Hoyne Avenue","address_zip":"60647","neighborhood":null,"suburb":"Lincoln Park","images":["https://feed.bikelaneuprising.com/64368/atti6SHdpCgmZG0ao_large.jpg"],"reporter_id":1},"64369":{"blu_id":64369,"category":"Private Owner Vehicle","lat":41.91825165472509,"lon":-87.68965914845467,"created_at":"2023-12-10T00:31:40.000+00:00","address_street":"2035 North Milwaukee Avenue","address_zip":"60647","neighborhood":null,"suburb":"Logan Square","images":["https://feed.bikelaneuprising.com/64369/attc1HcflqNsSUHsq_large.jpg"],"reporter_id":1},"64380":{"blu_id":64380,"category":"Private Owner Vehicle","lat":41.91486813689229,"lon":-87.6851312443614,"created_at":"2023-12-10T04:29:00.000+00:00","address_street":"1850-1852 North Milwaukee Avenue","address_zip":"60647","neighborhood":"Wicker Park","suburb":"Logan Square","images":["https://feed.bikelaneuprising.com/64380/att4LEQQXzRFTBs2M_large.jpg"],"reporter_id":1},"64381":{"blu_id":64381,"category":"Private Owner Vehicle","lat":41.9150999143353,"lon":-87.68482949584723,"created_at":"2023-12-10T04:30:11.000+00:00","address_street":"1850-1852 North Milwaukee Avenue","address_zip":"60647","neighborhood":"Wicker Park","suburb":"Logan Square","images":["https://feed.bikelaneuprising.com/64381/attFZUPeDy5Num16N_large.jpg"],"reporter_id":1},"64382":{"blu_id":64382,"category":"Private Owner Vehicle","lat":41.915046273774806,"lon":-87.68457636237144,"created_at":"2023-12-10T04:31:10.000+00:00","address_street":"1855-1859 North Milwaukee Avenue","address_zip":"60647","neighborhood":"Wicker Park","suburb":"Logan Square","images":["https://feed.bikelaneuprising.com/64382/attup7mjLF9HuYpIm_large.jpg"],"reporter_id":1},"64383":{"blu_id":64383,"category":"Private Owner Vehicle","lat":41.91500211383767,"lon":-87.68459379673003,"created_at":"2023-12-10T04:31:58.000+00:00","address_street":"1855-1859 North Milwaukee Avenue","address_zip":"60647","neighborhood":"Wicker Park","suburb":"Logan Square","images":["https://feed.bikelaneuprising.com/64383/attZIk3H8tbOnf0ux_large.jpg"],"reporter_id":1},"64384":{"blu_id":64384,"category":"Private Owner Vehicle","lat":41.91499712401235,"lon":-87.6846045255661,"created_at":"2023-12-10T04:32:46.000+00:00","address_street":"1842 North Milwaukee Avenue","address_zip":"60647","neighborhood":"Wicker Park","suburb":"Logan Square","images":["https://feed.bikelaneuprising.com/64384/attIEOCRIztJA0UPS_large.jpg"],"reporter_id":1},"64385":{"blu_id":64385,"category":"Private Owner Vehicle","lat":41.91460517201419,"lon":-87.6840690895915,"created_at":"2023-12-10T04:34:24.000+00:00","address_street":"1822-1828 North Milwaukee Avenue","address_zip":"60647","neighborhood":"Wicker Park","suburb":"Logan Square","images":["https://feed.bikelaneuprising.com/64385/att39r1NoDnJZ69Dv_large.jpg"],"reporter_id":1},"64394":{"blu_id":64394,"category":"Taxi / Uber / Livery / Lyft","lat":41.94634666666666,"lon":-87.655845,"created_at":"2023-12-10T18:21:19.000+00:00","address_street":"3524-3530 North Clark Street","address_zip":"60657","neighborhood":null,"suburb":"Lake View","images":["https://feed.bikelaneuprising.com/64394/attODBzBjkslzAyBL_large.jpg","https://feed.bikelaneuprising.com/64394/attWKiV7WfEVHIBK8_large.jpg"],"reporter_id":1},"64395":{"blu_id":64395,"category":"Private Owner Vehicle","lat":41.94641333333333,"lon":-87.65596666666667,"created_at":"2023-12-10T18:24:59.000+00:00","address_street":"3524-3530 North Clark Street","address_zip":"60657","neighborhood":null,"suburb":"Lake View","images":["https://feed.bikelaneuprising.com/64395/attvjHFAdIL7ibRGq_large.jpg","https://feed.bikelaneuprising.com/64395/attBLsNNkNLOjTaOU_large.jpg"],"reporter_id":1},"64396":{"blu_id":64396,"category":"Private Owner Vehicle","lat":41.947491666666664,"lon":-87.65586166666667,"created_at":"2023-12-10T18:25:43.000+00:00","address_street":"1060 West Addison Street","address_zip":"60613","neighborhood":null,"suburb":"Lake View","images":["https://feed.bikelaneuprising.com/64396/attzR1HvVl4P9Q73c_large.jpg","https://feed.bikelaneuprising.com/64396/atttc6eD25GgsEZ4i_large.jpg"],"reporter_id":1},"64406":{"blu_id":64406,"category":"Private Owner Vehicle","lat":41.87423,"lon":-87.64313,"created_at":"2023-12-11T04:04:14.000+00:00","address_street":"601 West Harrison Street","address_zip":"60607","neighborhood":"Greektown","suburb":"Near West Side","images":["https://feed.bikelaneuprising.com/64406/attiMVhhkBp9efRmf_large.jpg"],"reporter_id":1},"64407":{"blu_id":64407,"category":"Private Owner Vehicle","lat":41.89019,"lon":-87.64956,"created_at":"2023-12-11T12:43:27.000+00:00","address_street":" Kennedy Expressway","address_zip":"60661","neighborhood":null,"suburb":"West Town","images":["https://feed.bikelaneuprising.com/64407/attapaF4XKMRcfUBk_large.jpg"],"reporter_id":1},"64408":{"blu_id":64408,"category":"Private Owner Vehicle","lat":41.89019,"lon":-87.64956,"created_at":"2023-12-11T12:44:18.000+00:00","address_street":" Kennedy Expressway","address_zip":"60661","neighborhood":null,"suburb":"West Town","images":["https://feed.bikelaneuprising.com/64408/attQqmMypmYBtRIt8_large.jpg"],"reporter_id":1},"64409":{"blu_id":64409,"category":"Private Owner Vehicle","lat":41.89019,"lon":-87.64956,"created_at":"2023-12-11T12:45:07.000+00:00","address_street":" Kennedy Expressway","address_zip":"60661","neighborhood":null,"suburb":"West Town","images":["https://feed.bikelaneuprising.com/64409/attfl84R7ie1wvOoK_large.jpg"],"reporter_id":1},"64413":{"blu_id":64413,"category":"Company Vehicle","lat":41.88437,"lon":-87.63305,"created_at":"2023-12-11T14:50:05.000+00:00","address_street":"151 West Randolph Street","address_zip":"60602","neighborhood":null,"suburb":"Loop","images":["https://feed.bikelaneuprising.com/64413/attUj4lyROBrSiQEc_large.jpg"],"reporter_id":1},"64414":{"blu_id":64414,"category":"Other  (damaged lane / snow / debris / pedestrian / etc.)","lat":41.884535026519906,"lon":-87.63285073191756,"created_at":"2023-12-11T14:52:23.000+00:00","address_street":"160 West Couch Place","address_zip":"60601","neighborhood":null,"suburb":"Loop","images":[],"reporter_id":1},"64415":{"blu_id":64415,"category":"Municipal (city) Vehicle - includes USPS","lat":41.95589666666667,"lon":-87.663405,"created_at":"2023-12-11T15:38:30.000+00:00","address_street":"4048 North Clark Street","address_zip":"60613","neighborhood":null,"suburb":"Lake View","images":["https://feed.bikelaneuprising.com/64415/attXp7ZNXJgC1zoET_large.jpg"],"reporter_id":1},"64416":{"blu_id":64416,"category":"Company Vehicle","lat":41.8943763,"lon":-87.6526034,"created_at":"2023-12-11T18:54:16.000+00:00","address_street":"1005-1009 West Huron Street","address_zip":"60622","neighborhood":null,"suburb":"West Town","images":["https://feed.bikelaneuprising.com/64416/attR6nmOEjjiTxFMF_large.jpg"],"reporter_id":1}}
