{"64381":{"blu_id":64381,"category":"Private Owner Vehicle","lat":41.9150999143353,"lon":-87.68482949584723,"created_at":"2023-12-10T04:30:11.000+00:00","address_street":"1850-1852 North Milwaukee Avenue","address_zip":"60647","neighborhood":"Wicker Park","suburb":"Logan Square","images":["https://feed.bikelaneuprising.com/64381/attFZUPeDy5Num16N_large.jpg"],"reporter_id":1},"64382":{"blu_id":64382,"category":"Private Owner Vehicle","lat":41.915046273774806,"lon":-87.68457636237144,"created_at":"2023-12-10T04:31:10.000+00:00","address_street":"1855-1859 North Milwaukee Avenue","address_zip":"60647","neighborhood":"Wicker Park","suburb":"Logan Square","images":["https://feed.bikelaneuprising.com/64382/attup7mjLF9HuYpIm_large.jpg"],"reporter_id":1},"64383":{"blu_id":64383,"category":"Private Owner Vehicle","lat":41.91500211383767,"lon":-87.68459379673003,"created_at":"2023-12-10T04:31:58.000+00:00","address_street":"1855-1859 North Milwaukee Avenue","address_zip":"60647","neighborhood":"Wicker Park","suburb":"Logan Square","images":["https://feed.bikelaneuprising.com/64383/attZIk3H8tbOnf0ux_large.jpg"],"reporter_id":1},"64384":{"blu_id":64384,"category":"Private Owner Vehicle","lat":41.91499712401235,"lon":-87.6846045255661,"created_at":"2023-12-10T04:32:46.000+00:00","address_street":"1842 North Milwaukee Avenue","address_zip":"60647","neighborhood":"Wicker Park","suburb":"Logan Square","images":["https://feed.bikelaneuprising.com/64384/attIEOCRIztJA0UPS_large.jpg"],"reporter_id":1},"64385":{"blu_id":64385,"category":"Private Owner Vehicle","lat":41.91460517201419,"lon":-87.6840690895915,"created_at":"2023-12-10T04:34:24.000+00:00","address_street":"1822-1828 North Milwaukee Avenue","address_zip":"60647","neighborhood":"Wicker Park","suburb":"Logan Square","images":["https://feed.bikelaneuprising.com/64385/att39r1NoDnJZ69Dv_large.jpg"],"reporter_id":1},"64394":{"blu_id":64394,"category":"Taxi / Uber / Livery / Lyft","lat":41.94634666666666,"lon":-87.655845,"created_at":"2023-12-10T18:21:19.000+00:00","address_street":"3524-3530 North Clark Street","address_zip":"60657","neighborhood":null,"suburb":"Lake View","images":["https://feed.bikelaneuprising.com/64394/attODBzBjkslzAyBL_large.jpg","https://feed.bikelaneuprising.com/64394/attWKiV7WfEVHIBK8_large.jpg"],"reporter_id":1},"64395":{"blu_id":64395,"category":"Private Owner Vehicle","lat":41.94641333333333,"lon":-87.65596666666667,"created_at":"2023-12-10T18:24:59.000+00:00","address_street":"3524-3530 North Clark Street","address_zip":"60657","neighborhood":null,"suburb":"Lake View","images":["https://feed.bikelaneuprising.com/64395/attvjHFAdIL7ibRGq_large.jpg","https://feed.bikelaneuprising.com/64395/attBLsNNkNLOjTaOU_large.jpg"],"reporter_id":1},"64396":{"blu_id":64396,"category":"Private Owner Vehicle","lat":41.947491666666664,"lon":-87.65586166666667,"created_at":"2023-12-10T18:25:43.000+00:00","address_street":"1060 West Addison Street","address_zip":"60613","neighborhood":null,"suburb":"Lake View","images":["https://feed.bikelaneuprising.com/64396/attzR1HvVl4P9Q73c_large.jpg","https://feed.bikelaneuprising.com/64396/atttc6eD25GgsEZ4i_large.jpg"],"reporter_id":1},"64406":{"blu_id":64406,"category":"Private Owner Vehicle","lat":41.87423,"lon":-87.64313,"created_at":"2023-12-11T04:04:14.000+00:00","address_street":"601 West Harrison Street","address_zip":"60607","neighborhood":"Greektown","suburb":"Near West Side","images":["https://feed.bikelaneuprising.com/64406/attiMVhhkBp9efRmf_large.jpg"],"reporter_id":1}}