{
  "reports": {
    "60000": {
      "blu_id": 60000,
      "category": "Private Owner Vehicle",
      "lat": 41.917205,
      "lon": -87.688195,
      "created_at": "2023-09-04T23:46:25.000+00:00",
      "address_street": "1980 North Milwaukee Avenue",
      "address_zip": "60647",
      "neighborhood": null,
      "suburb": "Logan Square",
      "images": [
        "https://feed.bikelaneuprising.com/60000/atts4Jyl79uaiJvR4_large.jpg"
      ],
      "reporter_id": 1
    },
    "60001": {
      "blu_id": 60001,
      "category": "Private Owner Vehicle",
      "lat": 41.920355,
      "lon": -87.69308333333333,
      "created_at": "2023-09-05T00:02:29.000+00:00",
      "address_street": "2148 North Milwaukee Avenue",
      "address_zip": "60647",
      "neighborhood": null,
      "suburb": "Logan Square",
      "images": [
        "https://feed.bikelaneuprising.com/60001/attmYNzwm0xL7YWtY_large.jpg"
      ],
      "reporter_id": 1
    },
    "60002": {
      "blu_id": 60002,
      "category": "Private Owner Vehicle",
      "lat": 41.94521277897294,
      "lon": -87.70675485714955,
      "created_at": "2023-09-05T01:17:46.000+00:00",
      "address_street": " North Elston Avenue",
      "address_zip": "60646",
      "neighborhood": null,
      "suburb": "Avondale",
      "images": [],
      "reporter_id": 1
    },
    "60003": {
      "blu_id": 60003,
      "category": "Private Owner Vehicle",
      "lat": 41.9078,
      "lon": -87.64527166666667,
      "created_at": "2023-09-05T01:25:07.000+00:00",
      "address_street": " North Clybourn Avenue",
      "address_zip": "60610",
      "neighborhood": "Chicago River North",
      "suburb": "Near North Side",
      "images": [
        "https://feed.bikelaneuprising.com/60003/attFvAh5vlroJ9vBe_large.jpg"
      ],
      "reporter_id": 1
    },
    "60004": {
      "blu_id": 60004,
      "category": "Private Owner Vehicle",
      "lat": 41.945518495780156,
      "lon": -87.70717501158734,
      "created_at": "2023-09-05T01:25:24.000+00:00",
      "address_street": "3531-3535 North Elston Avenue",
      "address_zip": "60646",
      "neighborhood": null,
      "suburb": "Avondale",
      "images": [
        "https://feed.bikelaneuprising.com/60004/attbOVSFufWJ4Chnh_large.jpg",
        "https://feed.bikelaneuprising.com/60004/att6Xkt4NT4wHbl1Y_large.jpg",
        "https://feed.bikelaneuprising.com/60004/attAuj6BfdzDBrxni_large.jpg"
      ],
      "reporter_id": 1
    },
    "60005": {
      "blu_id": 60005,
      "category": "Private Owner Vehicle",
      "lat": 41.92691333333333,
      "lon": -87.650855,
      "created_at": "2023-09-05T02:47:56.000+00:00",
      "address_street": "2464 North Lincoln Avenue",
      "address_zip": "60614",
      "neighborhood": null,
      "suburb": "Lincoln Park",
      "images": [
        "https://feed.bikelaneuprising.com/60005/att7jTbKSHyKxQmke_large.jpg"
      ],
      "reporter_id": 1
    },
    "60006": {
      "blu_id": 60006,
      "category": "Private Owner Vehicle",
      "lat": 41.924225,
      "lon": -87.64711666666666,
      "created_at": "2023-09-05T02:48:31.000+00:00",
      "address_street": "2316-2348 North Lincoln Avenue",
      "address_zip": "60614",
      "neighborhood": "Mid-North District",
      "suburb": "Lincoln Park",
      "images": [
        "https://feed.bikelaneuprising.com/60006/attuWpRd9MKQj5Jsx_large.jpg"
      ],
      "reporter_id": 1
    },
    "60007": {
      "blu_id": 60007,
      "category": "Private Owner Vehicle",
      "lat": 41.924141666666664,
      "lon": -87.64701166666667,
      "created_at": "2023-09-05T02:49:14.000+00:00",
      "address_street": "2312 North Lincoln Avenue",
      "address_zip": "60614",
      "neighborhood": "Mid-North District",
      "suburb": "Lincoln Park",
      "images": [
        "https://feed.bikelaneuprising.com/60007/att2SjBHNuVz42uj8_large.jpg"
      ],
      "reporter_id": 1
    },
    "60008": {
      "blu_id": 60008,
      "category": "Company Vehicle",
      "lat": 41.939341666666664,
      "lon": -87.70185833333333,
      "created_at": "2023-09-05T13:44:32.000+00:00",
      "address_street": "2939-2941 West Belmont Avenue",
      "address_zip": "60618",
      "neighborhood": null,
      "suburb": "Avondale",
      "images": [],
      "reporter_id": 1
    },
    "60009": {
      "blu_id": 60009,
      "category": "Company Vehicle",
      "lat": 41.877219707932554,
      "lon": -87.64097973704338,
      "created_at": "2023-09-05T14:42:46.000+00:00",
      "address_street": "310 South Clinton Street",
      "address_zip": "60661",
      "neighborhood": "Greektown",
      "suburb": "Near West Side",
      "images": [
        "https://feed.bikelaneuprising.com/60009/attzm30ECSGcHllyT_large.jpg"
      ],
      "reporter_id": 1
    },
    "60011": {
      "blu_id": 60011,
      "category": "Private Owner Vehicle",
      "lat": 41.874361111111114,
      "lon": -87.64022222222223,
      "created_at": "2023-09-05T15:30:27.000+00:00",
      "address_street": "516-520 West Harrison Street",
      "address_zip": "60607",
      "neighborhood": "Greektown",
      "suburb": "Near West Side",
      "images": [
        "https://feed.bikelaneuprising.com/60011/att2jvxNQBWyAuswp_large.jpg"
      ],
      "reporter_id": 1
    },
    "60013": {
      "blu_id": 60013,
      "category": "Private Owner Vehicle",
      "lat": 41.924416666666666,
      "lon": -87.64696333333333,
      "created_at": "2023-09-05T16:20:39.000+00:00",
      "address_street": "2323 North Lincoln Avenue",
      "address_zip": "60614",
      "neighborhood": "Mid-North District",
      "suburb": "Lincoln Park",
      "images": [
        "https://feed.bikelaneuprising.com/60013/attchuMIn00HaQ7nu_large.jpg",
        "https://feed.bikelaneuprising.com/60013/attn73CMKK2oGhc28_large.jpg"
      ],
      "reporter_id": 1
    },
    "60014": {
      "blu_id": 60014,
      "category": "Company Vehicle",
      "lat": 41.99337028566511,
      "lon": -87.66988053917885,
      "created_at": "2023-09-05T17:17:10.000+00:00",
      "address_street": "6115-6125 North Clark Street",
      "address_zip": "60660",
      "neighborhood": "Edgewater Glen",
      "suburb": "Edgewater",
      "images": [
        "https://feed.bikelaneuprising.com/60014/attmyBZ9G9udVbwn9_large.jpg",
        "https://feed.bikelaneuprising.com/60014/attyms9mUxJykbttl_large.jpg"
      ],
      "reporter_id": 1
    },
    "60015": {
      "blu_id": 60015,
      "category": "Private Owner Vehicle",
      "lat": 41.84567113000825,
      "lon": -87.66064953041183,
      "created_at": "2023-09-05T17:20:12.000+00:00",
      "address_street": " South Loomis Street",
      "address_zip": "60608",
      "neighborhood": null,
      "suburb": "Lower West Side",
      "images": [
        "https://feed.bikelaneuprising.com/60015/attg0YHY6nsYEsCne_large.jpg"
      ],
      "reporter_id": 1
    },
    "60016": {
      "blu_id": 60016,
      "category": "Municipal (city) Vehicle - includes USPS",
      "lat": 41.90518222325979,
      "lon": -87.64172550321705,
      "created_at": "2023-09-05T17:22:04.000+00:00",
      "address_street": "1260-1266 North Clybourn Avenue",
      "address_zip": "60610",
      "neighborhood": "Chicago River North",
      "suburb": "Near North Side",
      "images": [
        "https://feed.bikelaneuprising.com/60016/attXq3wI4g3jACwBj_large.jpg"
      ],
      "reporter_id": 1
    },
    "60017": {
      "blu_id": 60017,
      "category": "Company Vehicle",
      "lat": 41.900688333333335,
      "lon": -87.69666333333333,
      "created_at": "2023-09-05T19:04:30.000+00:00",
      "address_street": "1047 North California Avenue",
      "address_zip": "60625",
      "neighborhood": null,
      "suburb": "West Town",
      "images": [
        "https://feed.bikelaneuprising.com/60017/attJvrjb1hicjKo55_large.jpg",
        "https://feed.bikelaneuprising.com/60017/attmgkLne3bzsxZRJ_large.jpg"
      ],
      "reporter_id": 1
    },
    "60019": {
      "blu_id": 60019,
      "category": "Private Owner Vehicle",
      "lat": 41.99458629526763,
      "lon": -87.6702419668436,
      "created_at": "2023-09-05T19:33:03.000+00:00",
      "address_street": " North Clark Street",
      "address_zip": "60660",
      "neighborhood": "Edgewater Glen",
      "suburb": "Edgewater",
      "images": [
        "https://feed.bikelaneuprising.com/60019/attLDy1m1u26lOR25_large.jpg"
      ],
      "reporter_id": 1
    },
    "60020": {
      "blu_id": 60020,
      "category": "Municipal (city) Vehicle - includes USPS",
      "lat": 41.87512944726905,
      "lon": -87.6409425213933,
      "created_at": "2023-09-05T19:37:17.000+00:00",
      "address_street": "500 South Clinton Street",
      "address_zip": "60607",
      "neighborhood": "Greektown",
      "suburb": "Near West Side",
      "images": [
        "https://feed.bikelaneuprising.com/60020/attPoVlFHNaRkkHUK_large.jpg"
      ],
      "reporter_id": 1
    },
    "60021": {
      "blu_id": 60021,
      "category": "Company Vehicle",
      "lat": 41.87808744684614,
      "lon": -87.64103807508945,
      "created_at": "2023-09-05T19:44:43.000+00:00",
      "address_street": " West Jackson Boulevard",
      "address_zip": "60606",
      "neighborhood": "Greektown",
      "suburb": "Near West Side",
      "images": [
        "https://feed.bikelaneuprising.com/60021/attAJTiRBIWenKRV5_large.jpg"
      ],
      "reporter_id": 1
    },
    "60022": {
      "blu_id": 60022,
      "category": "Other  (damaged lane / snow / debris / pedestrian / etc.)",
      "lat": 41.875302702094864,
      "lon": -87.6409425213933,
      "created_at": "2023-09-05T19:46:04.000+00:00",
      "address_street": " West Congress Parkway",
      "address_zip": "60606",
      "neighborhood": "Greektown",
      "suburb": "Near West Side",
      "images": [
        "https://feed.bikelaneuprising.com/60022/attUEXUzUbyo7LEjN_large.jpg"
      ],
      "reporter_id": 1
    },
    "60023": {
      "blu_id": 60023,
      "category": "Municipal (city) Vehicle - includes USPS",
      "lat": 41.899703333333335,
      "lon": -87.66798333333334,
      "created_at": "2023-09-05T20:06:55.000+00:00",
      "address_street": "1610 West Augusta Boulevard",
      "address_zip": "60651",
      "neighborhood": null,
      "suburb": "West Town",
      "images": [
        "https://feed.bikelaneuprising.com/60023/att2RZNEezeC32ijQ_large.jpg",
        "https://feed.bikelaneuprising.com/60023/attPseDA6GmtXUdOj_large.jpg"
      ],
      "reporter_id": 1
    },
    "60024": {
      "blu_id": 60024,
      "category": "Private Owner Vehicle",
      "lat": 41.88632166666667,
      "lon": -87.63862833333333,
      "created_at": "2023-09-05T20:07:57.000+00:00",
      "address_street": "444 West Lake Street",
      "address_zip": "60606",
      "neighborhood": null,
      "suburb": "Near West Side",
      "images": [
        "https://feed.bikelaneuprising.com/60024/attLhhDCkJcPTsaMj_large.jpg"
      ],
      "reporter_id": 1
    },
    "60026": {
      "blu_id": 60026,
      "category": "Company Vehicle",
      "lat": 41.908701,
      "lon": -87.660862,
      "created_at": "2023-09-05T21:26:46.000+00:00",
      "address_street": "1467 North Elston Avenue",
      "address_zip": "60642",
      "neighborhood": null,
      "suburb": "West Town",
      "images": [
        "https://feed.bikelaneuprising.com/60026/attv4ccg9DGVH1Ahr_large.jpg",
        "https://feed.bikelaneuprising.com/60026/attgMcVZsWdtDI603_large.jpg"
      ],
      "reporter_id": 1
    },
    "60027": {
      "blu_id": 60027,
      "category": "Other  (damaged lane / snow / debris / pedestrian / etc.)",
      "lat": 41.90847,
      "lon": -87.66078833333333,
      "created_at": "2023-09-05T21:31:50.000+00:00",
      "address_street": "1400-1430 North Elston Avenue",
      "address_zip": "60642",
      "neighborhood": null,
      "suburb": "West Town",
      "images": [
        "https://feed.bikelaneuprising.com/60027/attQntFNfAmGpeknC_large.jpg"
      ],
      "reporter_id": 1
    },
    "60028": {
      "blu_id": 60028,
      "category": "Company Vehicle",
      "lat": 41.928295,
      "lon": -87.65406166666666,
      "created_at": "2023-09-05T22:46:02.000+00:00",
      "address_street": "1001-1015 West Lill Avenue",
      "address_zip": "60614",
      "neighborhood": null,
      "suburb": "Lincoln Park",
      "images": [
        "https://feed.bikelaneuprising.com/60028/att2zuO6lyTvzoGqj_large.jpg",
        "https://feed.bikelaneuprising.com/60028/att40BswGIGumWHm0_large.jpg"
      ],
      "reporter_id": 1
    },
    "60029": {
      "blu_id": 60029,
      "category": "Private Owner Vehicle",
      "lat": 41.924263333333336,
      "lon": -87.64714166666667,
      "created_at": "2023-09-05T22:46:55.000+00:00",
      "address_street": "2323 North Lincoln Avenue",
      "address_zip": "60614",
      "neighborhood": "Mid-North District",
      "suburb": "Lincoln Park",
      "images": [
        "https://feed.bikelaneuprising.com/60029/attwvtIitG0tqdkOC_large.jpg"
      ],
      "reporter_id": 1
    },
    "60030": {
      "blu_id": 60030,
      "category": "Private Owner Vehicle",
      "lat": 41.88312166666667,
      "lon": -87.64846666666666,
      "created_at": "2023-09-05T23:52:55.000+00:00",
      "address_street": "845 West Washington Street",
      "address_zip": "60607",
      "neighborhood": "Greektown",
      "suburb": "Near West Side",
      "images": [
        "https://feed.bikelaneuprising.com/60030/attHKgYsDiRx5ZfO8_large.jpg"
      ],
      "reporter_id": 1
    },
    "60031": {
      "blu_id": 60031,
      "category": "Private Owner Vehicle",
      "lat": 41.8740726825216,
      "lon": -87.66851127147675,
      "created_at": "2023-09-06T00:41:13.000+00:00",
      "address_street": "1653 West Congress Parkway",
      "address_zip": "60612",
      "neighborhood": "Illinois Medical District",
      "suburb": "Near West Side",
      "images": [
        "https://feed.bikelaneuprising.com/60031/attA4wMDRb0oLrM4G_large.jpg"
      ],
      "reporter_id": 1
    },
    "60032": {
      "blu_id": 60032,
      "category": "Private Owner Vehicle",
      "lat": 41.8741256085518,
      "lon": -87.66851026564837,
      "created_at": "2023-09-06T00:42:09.000+00:00",
      "address_street": "1653 West Congress Parkway",
      "address_zip": "60612",
      "neighborhood": "Illinois Medical District",
      "suburb": "Near West Side",
      "images": [
        "https://feed.bikelaneuprising.com/60032/attSMiZRzqJUBPm8K_large.jpg"
      ],
      "reporter_id": 1
    },
    "60033": {
      "blu_id": 60033,
      "category": "Private Owner Vehicle",
      "lat": 41.87413160017511,
      "lon": -87.66868729144335,
      "created_at": "2023-09-06T00:43:11.000+00:00",
      "address_street": "1653 West Congress Parkway",
      "address_zip": "60612",
      "neighborhood": "Illinois Medical District",
      "suburb": "Near West Side",
      "images": [
        "https://feed.bikelaneuprising.com/60033/attncSD6iLFRKBsKo_large.jpg"
      ],
      "reporter_id": 1
    },
    "60034": {
      "blu_id": 60034,
      "category": "Private Owner Vehicle",
      "lat": 41.85772193391132,
      "lon": -87.63474460691214,
      "created_at": "2023-09-06T01:39:26.000+00:00",
      "address_street": " West 18th Street",
      "address_zip": "IL",
      "neighborhood": "South Loop",
      "suburb": "Near South Side",
      "images": [
        "https://feed.bikelaneuprising.com/60034/attltrtWs9OjxVpbJ_large.jpg"
      ],
      "reporter_id": 1
    },
    "60036": {
      "blu_id": 60036,
      "category": "Private Owner Vehicle",
      "lat": 41.889021666666665,
      "lon": -87.63314166666666,
      "created_at": "2023-09-06T04:44:53.000+00:00",
      "address_street": "155 West Kinzie Street",
      "address_zip": "60654",
      "neighborhood": "Chicago River North",
      "suburb": "Near North Side",
      "images": [
        "https://feed.bikelaneuprising.com/60036/attjWvV7xayLfSZH4_large.jpg",
        "https://feed.bikelaneuprising.com/60036/attiMDvEQIwEsd0CT_large.jpg"
      ],
      "reporter_id": 1
    },
    "60037": {
      "blu_id": 60037,
      "category": "Private Owner Vehicle",
      "lat": 41.90358838368983,
      "lon": -87.64985530791215,
      "created_at": "2023-09-06T12:50:12.000+00:00",
      "address_street": " West Division Street",
      "address_zip": "60651",
      "neighborhood": "Chicago River North",
      "suburb": "Near North Side",
      "images": [],
      "reporter_id": 1
    },
    "60038": {
      "blu_id": 60038,
      "category": "Private Owner Vehicle",
      "lat": 41.90498038392663,
      "lon": -87.64808368594694,
      "created_at": "2023-09-06T12:51:07.000+00:00",
      "address_street": "720-728 West Scott Street",
      "address_zip": "60610",
      "neighborhood": "Chicago River North",
      "suburb": "Near North Side",
      "images": [],
      "reporter_id": 1
    },
    "60039": {
      "blu_id": 60039,
      "category": "Private Owner Vehicle",
      "lat": 41.9420795740353,
      "lon": -87.64443190300037,
      "created_at": "2023-09-06T13:59:57.000+00:00",
      "address_street": " North Broadway",
      "address_zip": "60657",
      "neighborhood": null,
      "suburb": "Lake View",
      "images": [
        "https://feed.bikelaneuprising.com/60039/att1SIVk3X1sCLzr1_large.jpg"
      ],
      "reporter_id": 1
    },
    "60040": {
      "blu_id": 60040,
      "category": "Private Owner Vehicle",
      "lat": 41.94207931136774,
      "lon": -87.64440574132534,
      "created_at": "2023-09-06T14:01:13.000+00:00",
      "address_street": "3265 North Broadway",
      "address_zip": "60657",
      "neighborhood": null,
      "suburb": "Lake View",
      "images": [
        "https://feed.bikelaneuprising.com/60040/atttUTcFC1Q9bZie2_large.jpg"
      ],
      "reporter_id": 1
    },
    "60041": {
      "blu_id": 60041,
      "category": "Private Owner Vehicle",
      "lat": 41.94205591898371,
      "lon": -87.64439544433097,
      "created_at": "2023-09-06T14:03:20.000+00:00",
      "address_street": "3265 North Broadway",
      "address_zip": "60657",
      "neighborhood": null,
      "suburb": "Lake View",
      "images": [
        "https://feed.bikelaneuprising.com/60041/att6BWnDpeDxsYpNv_large.jpg"
      ],
      "reporter_id": 1
    },
    "60042": {
      "blu_id": 60042,
      "category": "Private Owner Vehicle",
      "lat": 41.8778176,
      "lon": -87.64082559972223,
      "created_at": "2023-09-06T14:07:40.000+00:00",
      "address_street": " West Jackson Boulevard",
      "address_zip": "60606",
      "neighborhood": "Greektown",
      "suburb": "Near West Side",
      "images": [
        "https://feed.bikelaneuprising.com/60042/att26xYzwV0mIzXsn_large.jpg"
      ],
      "reporter_id": 1
    },
    "60043": {
      "blu_id": 60043,
      "category": "Private Owner Vehicle",
      "lat": 41.875181599722225,
      "lon": -87.6408825,
      "created_at": "2023-09-06T14:08:08.000+00:00",
      "address_street": "500 South Clinton Street",
      "address_zip": "60607",
      "neighborhood": "Greektown",
      "suburb": "Near West Side",
      "images": [
        "https://feed.bikelaneuprising.com/60043/attKv3zRxAxsu30JC_large.jpg"
      ],
      "reporter_id": 1
    },
    "60045": {
      "blu_id": 60045,
      "category": "Private Owner Vehicle",
      "lat": 41.875134939504186,
      "lon": -87.64089357107878,
      "created_at": "2023-09-06T15:43:12.000+00:00",
      "address_street": "500 South Clinton Street",
      "address_zip": "60607",
      "neighborhood": "Greektown",
      "suburb": "Near West Side",
      "images": [
        "https://feed.bikelaneuprising.com/60045/attN85DJFogZasx7D_large.jpg"
      ],
      "reporter_id": 1
    },
    "60046": {
      "blu_id": 60046,
      "category": "Private Owner Vehicle",
      "lat": 41.87519909876125,
      "lon": -87.64088921248913,
      "created_at": "2023-09-06T15:44:09.000+00:00",
      "address_street": "500 South Clinton Street",
      "address_zip": "60607",
      "neighborhood": "Greektown",
      "suburb": "Near West Side",
      "images": [
        "https://feed.bikelaneuprising.com/60046/attHtwRG3nUUOVIUV_large.jpg"
      ],
      "reporter_id": 1
    },
    "60050": {
      "blu_id": 60050,
      "category": "Company Vehicle",
      "lat": 41.941505,
      "lon": -87.670425,
      "created_at": "2023-09-06T17:15:20.000+00:00",
      "address_street": "1651 West School Street",
      "address_zip": "60618",
      "neighborhood": null,
      "suburb": "Lake View",
      "images": [
        "https://feed.bikelaneuprising.com/60050/atttMgCLwL1dpfyjc_large.jpg",
        "https://feed.bikelaneuprising.com/60050/attiEfFhRIdYhZhA1_large.jpg"
      ],
      "reporter_id": 1
    },
    "60051": {
      "blu_id": 60051,
      "category": "Private Owner Vehicle",
      "lat": 41.94203884271715,
      "lon": -87.64439142351546,
      "created_at": "2023-09-06T17:38:15.000+00:00",
      "address_street": "3265 North Broadway",
      "address_zip": "60657",
      "neighborhood": null,
      "suburb": "Lake View",
      "images": [
        "https://feed.bikelaneuprising.com/60051/attzryff1OeoliaIQ_large.jpg"
      ],
      "reporter_id": 1
    },
    "60054": {
      "blu_id": 60054,
      "category": "Private Owner Vehicle",
      "lat": 41.92256166666667,
      "lon": -87.69690833333334,
      "created_at": "2023-09-06T18:14:43.000+00:00",
      "address_street": " North Milwaukee Avenue",
      "address_zip": "60647",
      "neighborhood": "Maplewood",
      "suburb": "Logan Square",
      "images": [
        "https://feed.bikelaneuprising.com/60054/attftHXXTxdQxTiel_large.jpg"
      ],
      "reporter_id": 1
    },
    "60055": {
      "blu_id": 60055,
      "category": "Private Owner Vehicle",
      "lat": 41.91723666666667,
      "lon": -87.68820333333333,
      "created_at": "2023-09-06T18:15:18.000+00:00",
      "address_street": "1980 North Milwaukee Avenue",
      "address_zip": "60647",
      "neighborhood": null,
      "suburb": "Logan Square",
      "images": [
        "https://feed.bikelaneuprising.com/60055/attpS396wq5lEZ4lI_large.jpg"
      ],
      "reporter_id": 1
    },
    "60056": {
      "blu_id": 60056,
      "category": "Private Owner Vehicle",
      "lat": 41.917183333333334,
      "lon": -87.68811666666667,
      "created_at": "2023-09-06T18:15:50.000+00:00",
      "address_street": "1980 North Milwaukee Avenue",
      "address_zip": "60647",
      "neighborhood": null,
      "suburb": "Logan Square",
      "images": [
        "https://feed.bikelaneuprising.com/60056/att3RdWVOvjj8xojm_large.jpg"
      ],
      "reporter_id": 1
    },
    "60057": {
      "blu_id": 60057,
      "category": "Company Vehicle",
      "lat": 41.950930076829934,
      "lon": -87.66417721396853,
      "created_at": "2023-09-06T19:09:07.000+00:00",
      "address_street": "3767 North Southport Avenue",
      "address_zip": "60613",
      "neighborhood": null,
      "suburb": "Lake View",
      "images": [
        "https://feed.bikelaneuprising.com/60057/attYDz1QgATUJYNYj_large.jpg",
        "https://feed.bikelaneuprising.com/60057/attIEK8YbN4xgrMxT_large.jpg",
        "https://feed.bikelaneuprising.com/60057/attHzGcKMwRDjskoh_large.jpg",
        "https://feed.bikelaneuprising.com/60057/attSD75FqhUGFTWut_large.jpg",
        "https://feed.bikelaneuprising.com/60057/attIRhMA0q92G62sd_large.jpg"
      ],
      "reporter_id": 1
    },
    "60058": {
      "blu_id": 60058,
      "category": "Private Owner Vehicle",
      "lat": 41.9465696585408,
      "lon": -87.66406731460772,
      "created_at": "2023-09-06T19:10:44.000+00:00",
      "address_street": "3544-3548 North Southport Avenue",
      "address_zip": "60613",
      "neighborhood": null,
      "suburb": "Lake View",
      "images": [
        "https://feed.bikelaneuprising.com/60058/attWtsAcklscKw6ym_large.jpg",
        "https://feed.bikelaneuprising.com/60058/attfIFpDqA9TUeh90_large.jpg",
        "https://feed.bikelaneuprising.com/60058/attT67ewyKiPZ13W2_large.jpg"
      ],
      "reporter_id": 1
    },
    "60059": {
      "blu_id": 60059,
      "category": "Company Vehicle",
      "lat": 41.94277686867754,
      "lon": -87.663962572244,
      "created_at": "2023-09-06T19:13:42.000+00:00",
      "address_street": "3338 North Southport Avenue",
      "address_zip": "60613",
      "neighborhood": null,
      "suburb": "Lake View",
      "images": [
        "https://feed.bikelaneuprising.com/60059/attvjWbqiIzbaCoxV_large.jpg",
        "https://feed.bikelaneuprising.com/60059/attEsrmbsHVJASu6A_large.jpg",
        "https://feed.bikelaneuprising.com/60059/attzemGvAgcdyVRRW_large.jpg",
        "https://feed.bikelaneuprising.com/60059/attB13xkwVuy5TEZq_large.jpg"
      ],
      "reporter_id": 1
    },
    "60060": {
      "blu_id": 60060,
      "category": "Company Vehicle",
      "lat": 41.941516666666665,
      "lon": -87.67060833333333,
      "created_at": "2023-09-06T19:14:08.000+00:00",
      "address_street": "1651 West School Street",
      "address_zip": "60618",
      "neighborhood": null,
      "suburb": "Lake View",
      "images": [],
      "reporter_id": 1
    },
    "60061": {
      "blu_id": 60061,
      "category": "Company Vehicle",
      "lat": 42.0467805,
      "lon": -87.681595,
      "created_at": "2023-09-06T19:19:29.000+00:00",
      "address_street": " Fountain Square",
      "address_zip": "60208",
      "neighborhood": "Downtown",
      "suburb": null,
      "images": [
        "https://feed.bikelaneuprising.com/60061/attdOmrV8OPs3M5Lh_large.jpg",
        "https://feed.bikelaneuprising.com/60061/att4H534g07OeGMcf_large.jpg"
      ],
      "reporter_id": 1
    },
    "60062": {
      "blu_id": 60062,
      "category": "Municipal (city) Vehicle - includes USPS",
      "lat": 41.85804,
      "lon": -87.63741,
      "created_at": "2023-09-06T19:53:51.000+00:00",
      "address_street": " West 18th Street",
      "address_zip": "IL",
      "neighborhood": null,
      "suburb": "Lower West Side",
      "images": [
        "https://feed.bikelaneuprising.com/60062/atto2VgHMSr4itUqy_large.jpg",
        "https://feed.bikelaneuprising.com/60062/attztjRkojF9WHgqv_large.jpg"
      ],
      "reporter_id": 1
    },
    "60067": {
      "blu_id": 60067,
      "category": "Private Owner Vehicle",
      "lat": 41.86485,
      "lon": -87.62558,
      "created_at": "2023-09-06T23:08:40.000+00:00",
      "address_street": "1333 South Wabash Avenue",
      "address_zip": "IL",
      "neighborhood": "South Loop",
      "suburb": "Near South Side",
      "images": [
        "https://feed.bikelaneuprising.com/60067/attkaUjkVUFDp7hdR_large.jpg"
      ],
      "reporter_id": 1
    },
    "60068": {
      "blu_id": 60068,
      "category": "Municipal (city) Vehicle - includes USPS",
      "lat": 41.875493006532864,
      "lon": -87.64725216244916,
      "created_at": "2023-09-06T23:09:53.000+00:00",
      "address_street": " Eisenhower Expressway",
      "address_zip": "60607",
      "neighborhood": "Greektown",
      "suburb": "Near West Side",
      "images": [
        "https://feed.bikelaneuprising.com/60068/attPTbB55hq64hJIg_large.jpg"
      ],
      "reporter_id": 1
    },
    "60069": {
      "blu_id": 60069,
      "category": "Taxi / Uber / Livery / Lyft",
      "lat": 41.86485,
      "lon": -87.62558,
      "created_at": "2023-09-06T23:10:16.000+00:00",
      "address_street": "1333 South Wabash Avenue",
      "address_zip": "IL",
      "neighborhood": "South Loop",
      "suburb": "Near South Side",
      "images": [
        "https://feed.bikelaneuprising.com/60069/attBzyITzse4dO3tc_large.jpg"
      ],
      "reporter_id": 1
    },
    "60072": {
      "blu_id": 60072,
      "category": "Other  (damaged lane / snow / debris / pedestrian / etc.)",
      "lat": 41.95885,
      "lon": -87.7261,
      "created_at": "2023-09-07T00:16:03.000+00:00",
      "address_street": "4267 North Elston Avenue",
      "address_zip": "60646",
      "neighborhood": null,
      "suburb": "Irving Park",
      "images": [],
      "reporter_id": 1
    },
    "60073": {
      "blu_id": 60073,
      "category": "Private Owner Vehicle",
      "lat": 41.939402,
      "lon": -87.700438,
      "created_at": "2023-09-07T01:53:39.000+00:00",
      "address_street": "2900 West Belmont Avenue",
      "address_zip": "60618",
      "neighborhood": null,
      "suburb": "Avondale",
      "images": [
        "https://feed.bikelaneuprising.com/60073/attSDQkquhTeg27om_large.jpg"
      ],
      "reporter_id": 1
    },
    "60074": {
      "blu_id": 60074,
      "category": "Private Owner Vehicle",
      "lat": 41.91807717366713,
      "lon": -87.65392415379665,
      "created_at": "2023-09-07T02:09:31.000+00:00",
      "address_street": "1011 West Armitage Avenue",
      "address_zip": "60614",
      "neighborhood": null,
      "suburb": "Lincoln Park",
      "images": [
        "https://feed.bikelaneuprising.com/60074/attKhDkYHlFmmgYSs_large.jpg"
      ],
      "reporter_id": 1
    },
    "60075": {
      "blu_id": 60075,
      "category": "Private Owner Vehicle",
      "lat": 41.918192534827305,
      "lon": -87.6459007981655,
      "created_at": "2023-09-07T02:10:30.000+00:00",
      "address_street": "659 West Armitage Avenue",
      "address_zip": "60614",
      "neighborhood": "Belgravia Terrace",
      "suburb": "Lincoln Park",
      "images": [
        "https://feed.bikelaneuprising.com/60075/attWTjT2CPe2aQVkz_large.jpg"
      ],
      "reporter_id": 1
    },
    "60076": {
      "blu_id": 60076,
      "category": "Private Owner Vehicle",
      "lat": 41.939341666666664,
      "lon": -87.69967,
      "created_at": "2023-09-07T02:33:27.000+00:00",
      "address_street": "2845 West Belmont Avenue",
      "address_zip": "60618",
      "neighborhood": null,
      "suburb": "Avondale",
      "images": [
        "https://feed.bikelaneuprising.com/60076/attvqWU5GU6oTCUfV_large.jpg",
        "https://feed.bikelaneuprising.com/60076/attaLaJ3CtsIDh06z_large.jpg"
      ],
      "reporter_id": 1
    },
    "60077": {
      "blu_id": 60077,
      "category": "Private Owner Vehicle",
      "lat": 41.93945333333333,
      "lon": -87.69979166666667,
      "created_at": "2023-09-07T02:34:21.000+00:00",
      "address_street": "2851-2853 West Belmont Avenue",
      "address_zip": "60618",
      "neighborhood": null,
      "suburb": "Avondale",
      "images": [
        "https://feed.bikelaneuprising.com/60077/attbnZU1yLbP18vdw_large.jpg",
        "https://feed.bikelaneuprising.com/60077/attIfKwwf3OdsH4Gx_large.jpg"
      ],
      "reporter_id": 1
    },
    "60078": {
      "blu_id": 60078,
      "category": "Private Owner Vehicle",
      "lat": 41.904962926029604,
      "lon": -87.6480785964808,
      "created_at": "2023-09-07T02:46:19.000+00:00",
      "address_street": "720-728 West Scott Street",
      "address_zip": "60610",
      "neighborhood": "Chicago River North",
      "suburb": "Near North Side",
      "images": [],
      "reporter_id": 1
    },
    "60079": {
      "blu_id": 60079,
      "category": "Municipal (city) Vehicle - includes USPS",
      "lat": 41.900208534008435,
      "lon": -87.6479598060078,
      "created_at": "2023-09-07T02:49:43.000+00:00",
      "address_street": "1000-1040 North Halsted Street",
      "address_zip": "60642",
      "neighborhood": "Chicago River North",
      "suburb": "Near North Side",
      "images": [],
      "reporter_id": 1
    },
    "60080": {
      "blu_id": 60080,
      "category": "Municipal (city) Vehicle - includes USPS",
      "lat": 41.89903990658498,
      "lon": -87.64791094830078,
      "created_at": "2023-09-07T02:50:16.000+00:00",
      "address_street": " North Branch Street",
      "address_zip": "60622",
      "neighborhood": "Chicago River North",
      "suburb": "Near North Side",
      "images": [],
      "reporter_id": 1
    },
    "60081": {
      "blu_id": 60081,
      "category": "Municipal (city) Vehicle - includes USPS",
      "lat": 41.89895568531748,
      "lon": -87.64783734485107,
      "created_at": "2023-09-07T02:51:07.000+00:00",
      "address_street": " North Halsted Street",
      "address_zip": "60642",
      "neighborhood": "Chicago River North",
      "suburb": "Near North Side",
      "images": [],
      "reporter_id": 1
    },
    "60082": {
      "blu_id": 60082,
      "category": "Municipal (city) Vehicle - includes USPS",
      "lat": 41.900109106837135,
      "lon": -87.64789247273517,
      "created_at": "2023-09-07T02:51:44.000+00:00",
      "address_street": "1000-1040 North Halsted Street",
      "address_zip": "60642",
      "neighborhood": "Chicago River North",
      "suburb": "Near North Side",
      "images": [],
      "reporter_id": 1
    },
    "60083": {
      "blu_id": 60083,
      "category": "Private Owner Vehicle",
      "lat": 41.8989627169069,
      "lon": -87.6478418019684,
      "created_at": "2023-09-07T02:52:42.000+00:00",
      "address_street": " North Halsted Street",
      "address_zip": "60642",
      "neighborhood": "Chicago River North",
      "suburb": "Near North Side",
      "images": [],
      "reporter_id": 1
    },
    "60084": {
      "blu_id": 60084,
      "category": "Municipal (city) Vehicle - includes USPS",
      "lat": 41.90497338839894,
      "lon": -87.64808124658633,
      "created_at": "2023-09-07T02:54:21.000+00:00",
      "address_street": "720-728 West Scott Street",
      "address_zip": "60610",
      "neighborhood": "Chicago River North",
      "suburb": "Near North Side",
      "images": [],
      "reporter_id": 1
    },
    "60085": {
      "blu_id": 60085,
      "category": "Private Owner Vehicle",
      "lat": 41.900393326896584,
      "lon": -87.64796045047231,
      "created_at": "2023-09-07T02:55:16.000+00:00",
      "address_street": "1000-1040 North Halsted Street",
      "address_zip": "60642",
      "neighborhood": "Chicago River North",
      "suburb": "Near North Side",
      "images": [],
      "reporter_id": 1
    },
    "60086": {
      "blu_id": 60086,
      "category": "Private Owner Vehicle",
      "lat": 41.89902954463614,
      "lon": -87.64790564260184,
      "created_at": "2023-09-07T02:55:56.000+00:00",
      "address_street": " North Branch Street",
      "address_zip": "60622",
      "neighborhood": "Chicago River North",
      "suburb": "Near North Side",
      "images": [],
      "reporter_id": 1
    },
    "60087": {
      "blu_id": 60087,
      "category": "Private Owner Vehicle",
      "lat": 41.9000845913335,
      "lon": -87.6479513798506,
      "created_at": "2023-09-07T02:57:00.000+00:00",
      "address_street": "900-920 North Halsted Street",
      "address_zip": "60642",
      "neighborhood": "Chicago River North",
      "suburb": "Near North Side",
      "images": [],
      "reporter_id": 1
    },
    "60088": {
      "blu_id": 60088,
      "category": "Private Owner Vehicle",
      "lat": 41.900124662147846,
      "lon": -87.64789094272633,
      "created_at": "2023-09-07T02:58:04.000+00:00",
      "address_street": "1000-1040 North Halsted Street",
      "address_zip": "60642",
      "neighborhood": "Chicago River North",
      "suburb": "Near North Side",
      "images": [],
      "reporter_id": 1
    },
    "60089": {
      "blu_id": 60089,
      "category": "Private Owner Vehicle",
      "lat": 41.898958798797956,
      "lon": -87.64784496938357,
      "created_at": "2023-09-07T02:58:52.000+00:00",
      "address_street": " North Halsted Street",
      "address_zip": "60642",
      "neighborhood": "Chicago River North",
      "suburb": "Near North Side",
      "images": [],
      "reporter_id": 1
    },
    "60090": {
      "blu_id": 60090,
      "category": "Private Owner Vehicle",
      "lat": 41.89904872120265,
      "lon": -87.6479034000589,
      "created_at": "2023-09-07T03:00:52.000+00:00",
      "address_street": "1011 North Halsted Street",
      "address_zip": "60642",
      "neighborhood": "Chicago River North",
      "suburb": "Near North Side",
      "images": [],
      "reporter_id": 1
    },
    "60091": {
      "blu_id": 60091,
      "category": "Company Vehicle",
      "lat": 41.87432166666667,
      "lon": -87.67012833333334,
      "created_at": "2023-09-07T11:04:12.000+00:00",
      "address_street": "1724-1750 West Harrison Street",
      "address_zip": "60612",
      "neighborhood": "Illinois Medical District",
      "suburb": "Near West Side",
      "images": [
        "https://feed.bikelaneuprising.com/60091/attC7c6ulV4ymCzr8_large.jpg",
        "https://feed.bikelaneuprising.com/60091/attzUepWHI39K9Biy_large.jpg",
        "https://feed.bikelaneuprising.com/60091/att8s4mIi4tJKfzB5_large.jpg"
      ],
      "reporter_id": 1
    },
    "60092": {
      "blu_id": 60092,
      "category": "Private Owner Vehicle",
      "lat": 41.897695,
      "lon": -87.656655,
      "created_at": "2023-09-07T11:05:11.000+00:00",
      "address_street": "844 North Elston Avenue",
      "address_zip": "60622",
      "neighborhood": null,
      "suburb": "West Town",
      "images": [
        "https://feed.bikelaneuprising.com/60092/attVz8E2qRqnCe2hp_large.jpg",
        "https://feed.bikelaneuprising.com/60092/attb2hEKqUdNUE36F_large.jpg",
        "https://feed.bikelaneuprising.com/60092/attFw0iGWj8gDWJKp_large.jpg"
      ],
      "reporter_id": 1
    },
    "60096": {
      "blu_id": 60096,
      "category": "Private Owner Vehicle",
      "lat": 41.87203,
      "lon": -87.62911,
      "created_at": "2023-09-07T15:03:23.000+00:00",
      "address_street": "47 West Polk Street",
      "address_zip": "60605",
      "neighborhood": "Printer's Row",
      "suburb": "Loop",
      "images": [
        "https://feed.bikelaneuprising.com/60096/attCNHT4lKOpCc6Ok_large.jpg",
        "https://feed.bikelaneuprising.com/60096/attRmJaJA1rZEzRda_large.jpg"
      ],
      "reporter_id": 1
    },
    "60097": {
      "blu_id": 60097,
      "category": "Taxi / Uber / Livery / Lyft",
      "lat": 41.88906,
      "lon": -87.63225,
      "created_at": "2023-09-07T15:22:23.000+00:00",
      "address_street": "345 North LaSalle Boulevard",
      "address_zip": "60654",
      "neighborhood": "Chicago River North",
      "suburb": "Near North Side",
      "images": [
        "https://feed.bikelaneuprising.com/60097/att6U7Ba0XDef7f8k_large.jpg",
        "https://feed.bikelaneuprising.com/60097/att6BrfcH91XK4OqR_large.jpg"
      ],
      "reporter_id": 1
    },
    "60100": {
      "blu_id": 60100,
      "category": "Private Owner Vehicle",
      "lat": 41.945882,
      "lon": -87.707796,
      "created_at": "2023-09-07T15:36:14.000+00:00",
      "address_street": " North Kedzie Avenue",
      "address_zip": "60625",
      "neighborhood": null,
      "suburb": "Avondale",
      "images": [
        "https://feed.bikelaneuprising.com/60100/attOM0xcn39SKWDmD_large.jpg"
      ],
      "reporter_id": 1
    },
    "60102": {
      "blu_id": 60102,
      "category": "Private Owner Vehicle",
      "lat": 41.9393350546245,
      "lon": -87.69964136340923,
      "created_at": "2023-09-07T16:04:00.000+00:00",
      "address_street": "2845 West Belmont Avenue",
      "address_zip": "60618",
      "neighborhood": null,
      "suburb": "Avondale",
      "images": [
        "https://feed.bikelaneuprising.com/60102/att1YS2g3DaQevHtn_large.jpg"
      ],
      "reporter_id": 1
    },
    "60103": {
      "blu_id": 60103,
      "category": "Company Vehicle",
      "lat": 41.87414083725993,
      "lon": -87.64348659664392,
      "created_at": "2023-09-07T16:04:32.000+00:00",
      "address_street": "601 West Harrison Street",
      "address_zip": "60607",
      "neighborhood": "Greektown",
      "suburb": "Near West Side",
      "images": [],
      "reporter_id": 1
    },
    "60104": {
      "blu_id": 60104,
      "category": "Private Owner Vehicle",
      "lat": 41.87154017068802,
      "lon": -87.67440542578697,
      "created_at": "2023-09-07T16:35:47.000+00:00",
      "address_street": "1858 West Polk Street",
      "address_zip": "60612",
      "neighborhood": "Illinois Medical District",
      "suburb": "Near West Side",
      "images": [
        "https://feed.bikelaneuprising.com/60104/att4zQDadQGxBubMm_large.jpg",
        "https://feed.bikelaneuprising.com/60104/attxL3eIOY1uyMllB_large.jpg"
      ],
      "reporter_id": 1
    },
    "60105": {
      "blu_id": 60105,
      "category": "Private Owner Vehicle",
      "lat": 42.046719,
      "lon": -87.681475,
      "created_at": "2023-09-07T17:45:36.000+00:00",
      "address_street": " Davis Street",
      "address_zip": "60201",
      "neighborhood": "Downtown",
      "suburb": null,
      "images": [
        "https://feed.bikelaneuprising.com/60105/attX5hsI3yyTgcgwg_large.jpg",
        "https://feed.bikelaneuprising.com/60105/attLDvMrS65ooCVH5_large.jpg"
      ],
      "reporter_id": 1
    },
    "60106": {
      "blu_id": 60106,
      "category": "Company Vehicle",
      "lat": 42.04706239195974,
      "lon": -87.68318369261672,
      "created_at": "2023-09-07T17:51:40.000+00:00",
      "address_street": "821 Davis Street",
      "address_zip": "60201",
      "neighborhood": "Downtown",
      "suburb": null,
      "images": [
        "https://feed.bikelaneuprising.com/60106/att4ljdE3ZcRLcOCH_large.png",
        "https://feed.bikelaneuprising.com/60106/attC2CBq66HJfrbgT_large.png",
        "https://feed.bikelaneuprising.com/60106/attVbr740FKdSSgc6_large.png"
      ],
      "reporter_id": 1
    },
    "60107": {
      "blu_id": 60107,
      "category": "Company Vehicle",
      "lat": 41.90072,
      "lon": -87.69661666666667,
      "created_at": "2023-09-07T18:21:10.000+00:00",
      "address_street": "1047 North California Avenue",
      "address_zip": "60625",
      "neighborhood": null,
      "suburb": "West Town",
      "images": [
        "https://feed.bikelaneuprising.com/60107/attiqvtjWUfsjT7HU_large.jpg",
        "https://feed.bikelaneuprising.com/60107/attGt6GlCgvqbL8kF_large.jpg",
        "https://feed.bikelaneuprising.com/60107/att9bAAiKQc1tKFqQ_large.jpg"
      ],
      "reporter_id": 1
    },
    "60108": {
      "blu_id": 60108,
      "category": "Private Owner Vehicle",
      "lat": 41.91732,
      "lon": -87.68833833333333,
      "created_at": "2023-09-07T19:14:20.000+00:00",
      "address_street": "1980 North Milwaukee Avenue",
      "address_zip": "60647",
      "neighborhood": null,
      "suburb": "Logan Square",
      "images": [
        "https://feed.bikelaneuprising.com/60108/att83ISmNJtbobXrv_large.jpg"
      ],
      "reporter_id": 1
    },
    "60111": {
      "blu_id": 60111,
      "category": "Company Vehicle",
      "lat": 41.87399,
      "lon": -87.67129,
      "created_at": "2023-09-07T22:03:19.000+00:00",
      "address_street": "1653 West Congress Parkway",
      "address_zip": "60612",
      "neighborhood": "Illinois Medical District",
      "suburb": "Near West Side",
      "images": [
        "https://feed.bikelaneuprising.com/60111/att651EJQIumHnzpT_large.jpg",
        "https://feed.bikelaneuprising.com/60111/attbpfOgL8YrkSzD1_large.jpg",
        "https://feed.bikelaneuprising.com/60111/attiDrtJhu7ClQq5o_large.jpg",
        "https://feed.bikelaneuprising.com/60111/attdAzCJ1WZBqyFDy_large.jpg"
      ],
      "reporter_id": 1
    },
    "60112": {
      "blu_id": 60112,
      "category": "Private Owner Vehicle",
      "lat": 41.87399,
      "lon": -87.67086,
      "created_at": "2023-09-07T22:05:41.000+00:00",
      "address_street": "1735-1753 West Harrison Street",
      "address_zip": "60612",
      "neighborhood": "Illinois Medical District",
      "suburb": "Near West Side",
      "images": [
        "https://feed.bikelaneuprising.com/60112/attqg2cfimBmYiMPM_large.jpg",
        "https://feed.bikelaneuprising.com/60112/att07u4rrmGCnzwds_large.jpg",
        "https://feed.bikelaneuprising.com/60112/attLrWXly8HHEGuXw_large.jpg"
      ],
      "reporter_id": 1
    },
    "60113": {
      "blu_id": 60113,
      "category": "Private Owner Vehicle",
      "lat": 41.924225010592295,
      "lon": -87.70214648313285,
      "created_at": "2023-09-07T22:11:08.000+00:00",
      "address_street": "2331 North Sacramento Avenue",
      "address_zip": "60618",
      "neighborhood": "Maplewood",
      "suburb": "Logan Square",
      "images": [
        "https://feed.bikelaneuprising.com/60113/attZBzcM9FPXntfs2_large.jpg",
        "https://feed.bikelaneuprising.com/60113/attCBnt7y97CHWO04_large.jpg"
      ],
      "reporter_id": 1
    },
    "60114": {
      "blu_id": 60114,
      "category": "Construction",
      "lat": 41.92700963189005,
      "lon": -87.70217722066437,
      "created_at": "2023-09-07T22:12:43.000+00:00",
      "address_street": "2511 North Sacramento Avenue",
      "address_zip": "60618",
      "neighborhood": null,
      "suburb": "Logan Square",
      "images": [
        "https://feed.bikelaneuprising.com/60114/attHXWGZAj2dB6wPf_large.jpg",
        "https://feed.bikelaneuprising.com/60114/attp1hNSbt1IObte2_large.jpg"
      ],
      "reporter_id": 1
    },
    "60115": {
      "blu_id": 60115,
      "category": "Company Vehicle",
      "lat": 41.95788957898154,
      "lon": -87.72516165865319,
      "created_at": "2023-09-07T22:23:47.000+00:00",
      "address_street": "4227 North Elston Avenue",
      "address_zip": "60646",
      "neighborhood": null,
      "suburb": "Irving Park",
      "images": [
        "https://feed.bikelaneuprising.com/60115/attmy43cNpHGyupN8_large.jpg",
        "https://feed.bikelaneuprising.com/60115/attfKyrNRIBK2nbuk_large.jpg",
        "https://feed.bikelaneuprising.com/60115/attWgcGhOzGfweYX3_large.jpg",
        "https://feed.bikelaneuprising.com/60115/atteVMKUTJpa982vS_large.jpg"
      ],
      "reporter_id": 1
    },
    "60116": {
      "blu_id": 60116,
      "category": "Municipal (city) Vehicle - includes USPS",
      "lat": 41.90333832998973,
      "lon": -87.667745500803,
      "created_at": "2023-09-07T22:28:07.000+00:00",
      "address_street": "1611 West Division Street",
      "address_zip": "60622",
      "neighborhood": null,
      "suburb": "West Town",
      "images": [
        "https://feed.bikelaneuprising.com/60116/attxWwp5bAd6yCrel_large.jpg"
      ],
      "reporter_id": 1
    },
    "60117": {
      "blu_id": 60117,
      "category": "Company Vehicle",
      "lat": 41.90330514158059,
      "lon": -87.67254665493965,
      "created_at": "2023-09-07T22:29:40.000+00:00",
      "address_street": "1800 West Division Street",
      "address_zip": "60651",
      "neighborhood": "Wicker Park",
      "suburb": "West Town",
      "images": [
        "https://feed.bikelaneuprising.com/60117/attKCUA5zy0CUDdn8_large.jpg"
      ],
      "reporter_id": 1
    },
    "60118": {
      "blu_id": 60118,
      "category": "Company Vehicle",
      "lat": 41.9581,
      "lon": -87.72504,
      "created_at": "2023-09-07T22:30:12.000+00:00",
      "address_street": "4227 North Elston Avenue",
      "address_zip": "60646",
      "neighborhood": null,
      "suburb": "Irving Park",
      "images": [
        "https://feed.bikelaneuprising.com/60118/attDrWbWVxJMdQOjE_large.jpg",
        "https://feed.bikelaneuprising.com/60118/attxqMNDu6qzqgxBJ_large.jpg",
        "https://feed.bikelaneuprising.com/60118/attr9JqzBC0ZSZqJl_large.jpg",
        "https://feed.bikelaneuprising.com/60118/attF7ZFC2AeGBYvCi_large.jpg"
      ],
      "reporter_id": 1
    },
    "60119": {
      "blu_id": 60119,
      "category": "Construction",
      "lat": 41.9646166,
      "lon": -87.6570006,
      "created_at": "2023-09-07T22:34:54.000+00:00",
      "address_street": "4543-4547 North Broadway",
      "address_zip": "60640",
      "neighborhood": "Buena Park",
      "suburb": "Uptown",
      "images": [
        "https://feed.bikelaneuprising.com/60119/att35ViKdGP7J1O0L_large.jpg"
      ],
      "reporter_id": 1
    },
    "60122": {
      "blu_id": 60122,
      "category": "Municipal (city) Vehicle - includes USPS",
      "lat": 41.908975,
      "lon": -87.66097166666667,
      "created_at": "2023-09-07T23:30:12.000+00:00",
      "address_street": "1467 North Elston Avenue",
      "address_zip": "60642",
      "neighborhood": null,
      "suburb": "West Town",
      "images": [
        "https://feed.bikelaneuprising.com/60122/att9YFwj3b6bg6Fnf_large.jpg"
      ],
      "reporter_id": 1
    },
    "60123": {
      "blu_id": 60123,
      "category": "Private Owner Vehicle",
      "lat": 41.887740599460294,
      "lon": -87.64430339974858,
      "created_at": "2023-09-07T23:30:35.000+00:00",
      "address_street": " North Desplaines Street",
      "address_zip": "60661",
      "neighborhood": null,
      "suburb": "Near West Side",
      "images": [
        "https://feed.bikelaneuprising.com/60123/attYZSK9vGARs4Ghz_large.jpg"
      ],
      "reporter_id": 1
    },
    "60124": {
      "blu_id": 60124,
      "category": "Private Owner Vehicle",
      "lat": 41.88775618084967,
      "lon": -87.64430048419833,
      "created_at": "2023-09-07T23:32:03.000+00:00",
      "address_street": " North Desplaines Street",
      "address_zip": "60661",
      "neighborhood": null,
      "suburb": "Near West Side",
      "images": [
        "https://feed.bikelaneuprising.com/60124/attfMmn6PnoL03wLO_large.jpg"
      ],
      "reporter_id": 1
    },
    "60126": {
      "blu_id": 60126,
      "category": "Company Vehicle",
      "lat": 41.90095489078563,
      "lon": -87.65662655868462,
      "created_at": "2023-09-07T23:34:18.000+00:00",
      "address_street": "1036 North Elston Avenue",
      "address_zip": "60622",
      "neighborhood": null,
      "suburb": "West Town",
      "images": [],
      "reporter_id": 1
    },
    "60128": {
      "blu_id": 60128,
      "category": "Taxi / Uber / Livery / Lyft",
      "lat": 41.8844805207999,
      "lon": -87.6383152666444,
      "created_at": "2023-09-07T23:36:24.000+00:00",
      "address_street": " West Randolph Street",
      "address_zip": "60606",
      "neighborhood": null,
      "suburb": "Loop",
      "images": [],
      "reporter_id": 1
    },
    "60129": {
      "blu_id": 60129,
      "category": "Taxi / Uber / Livery / Lyft",
      "lat": 41.88447919546253,
      "lon": -87.63837376098017,
      "created_at": "2023-09-07T23:37:03.000+00:00",
      "address_street": " West Randolph Street",
      "address_zip": "60606",
      "neighborhood": "Greektown",
      "suburb": "Near West Side",
      "images": [],
      "reporter_id": 1
    },
    "60130": {
      "blu_id": 60130,
      "category": "Other  (damaged lane / snow / debris / pedestrian / etc.)",
      "lat": 41.884476277384856,
      "lon": -87.63837975848833,
      "created_at": "2023-09-07T23:38:41.000+00:00",
      "address_street": " West Randolph Street",
      "address_zip": "60606",
      "neighborhood": "Greektown",
      "suburb": "Near West Side",
      "images": [],
      "reporter_id": 1
    },
    "60132": {
      "blu_id": 60132,
      "category": "Private Owner Vehicle",
      "lat": 41.88572833333333,
      "lon": -87.62947,
      "created_at": "2023-09-07T23:44:13.000+00:00",
      "address_street": " West Lake Street",
      "address_zip": "60696",
      "neighborhood": null,
      "suburb": "Loop",
      "images": [
        "https://feed.bikelaneuprising.com/60132/att195KvCekE3tolW_large.jpg"
      ],
      "reporter_id": 1
    },
    "60134": {
      "blu_id": 60134,
      "category": "Taxi / Uber / Livery / Lyft",
      "lat": 41.92835703193936,
      "lon": -87.66343952179537,
      "created_at": "2023-09-07T23:57:40.000+00:00",
      "address_street": "2542 North Southport Avenue",
      "address_zip": "60613",
      "neighborhood": null,
      "suburb": "Lincoln Park",
      "images": [
        "https://feed.bikelaneuprising.com/60134/attBBo3o2x7YhVPAN_large.jpg"
      ],
      "reporter_id": 1
    },
    "60145": {
      "blu_id": 60145,
      "category": "Company Vehicle",
      "lat": 41.928295,
      "lon": -87.65406166666666,
      "created_at": "2023-09-08T01:22:41.000+00:00",
      "address_street": "1001-1015 West Lill Avenue",
      "address_zip": "60614",
      "neighborhood": null,
      "suburb": "Lincoln Park",
      "images": [
        "https://feed.bikelaneuprising.com/60145/attcVMkBqWSwAioNi_large.jpg",
        "https://feed.bikelaneuprising.com/60145/att5IqcbN4k3XPUqN_large.jpg"
      ],
      "reporter_id": 1
    },
    "60146": {
      "blu_id": 60146,
      "category": "Private Owner Vehicle",
      "lat": 41.92254166666667,
      "lon": -87.64917,
      "created_at": "2023-09-08T01:23:20.000+00:00",
      "address_street": "2222 North Halsted Street",
      "address_zip": "60614",
      "neighborhood": null,
      "suburb": "Lincoln Park",
      "images": [
        "https://feed.bikelaneuprising.com/60146/attN30dt7yc59eqbi_large.jpg"
      ],
      "reporter_id": 1
    },
    "60147": {
      "blu_id": 60147,
      "category": "Private Owner Vehicle",
      "lat": 41.925066666666666,
      "lon": -87.64808666666667,
      "created_at": "2023-09-08T01:23:58.000+00:00",
      "address_street": "2360-2364 North Lincoln Avenue",
      "address_zip": "60614",
      "neighborhood": "Mid-North District",
      "suburb": "Lincoln Park",
      "images": [
        "https://feed.bikelaneuprising.com/60147/att28sq03BFuVIZVr_large.jpg"
      ],
      "reporter_id": 1
    },
    "60148": {
      "blu_id": 60148,
      "category": "Taxi / Uber / Livery / Lyft",
      "lat": 41.93498833333334,
      "lon": -87.66210333333333,
      "created_at": "2023-09-08T01:24:40.000+00:00",
      "address_street": "2927 North Lincoln Avenue",
      "address_zip": "60657",
      "neighborhood": null,
      "suburb": "Lake View",
      "images": [
        "https://feed.bikelaneuprising.com/60148/attQ8gNXogsdKwfhQ_large.jpg"
      ],
      "reporter_id": 1
    },
    "60149": {
      "blu_id": 60149,
      "category": "Company Vehicle",
      "lat": 41.93430333333333,
      "lon": -87.66121666666666,
      "created_at": "2023-09-08T01:25:40.000+00:00",
      "address_street": "2901 North Lakewood Avenue",
      "address_zip": "60657",
      "neighborhood": null,
      "suburb": "Lake View",
      "images": [
        "https://feed.bikelaneuprising.com/60149/attrWMzbMluHkRvhu_large.jpg",
        "https://feed.bikelaneuprising.com/60149/attk9Du3miy1UCCok_large.jpg"
      ],
      "reporter_id": 1
    },
    "60150": {
      "blu_id": 60150,
      "category": "Company Vehicle",
      "lat": 41.92857166666667,
      "lon": -87.65439666666667,
      "created_at": "2023-09-08T01:27:50.000+00:00",
      "address_street": " West Wrightwood Avenue",
      "address_zip": "60614",
      "neighborhood": null,
      "suburb": "Lincoln Park",
      "images": [
        "https://feed.bikelaneuprising.com/60150/atttuFzm6uwAcT3ZW_large.jpg",
        "https://feed.bikelaneuprising.com/60150/atttZUfkmUrcvlgzU_large.jpg"
      ],
      "reporter_id": 1
    },
    "60151": {
      "blu_id": 60151,
      "category": "Private Owner Vehicle",
      "lat": 41.905008,
      "lon": -87.659509,
      "created_at": "2023-09-08T01:28:11.000+00:00",
      "address_street": "1301 North Elston Avenue",
      "address_zip": "60642",
      "neighborhood": null,
      "suburb": "West Town",
      "images": [
        "https://feed.bikelaneuprising.com/60151/att932t0gZ9A7eCtn_large.jpg"
      ],
      "reporter_id": 1
    },
    "60152": {
      "blu_id": 60152,
      "category": "Private Owner Vehicle",
      "lat": 41.92584166666666,
      "lon": -87.64931333333334,
      "created_at": "2023-09-08T01:28:23.000+00:00",
      "address_street": "2400-2418 North Lincoln Avenue",
      "address_zip": "60614",
      "neighborhood": null,
      "suburb": "Lincoln Park",
      "images": [
        "https://feed.bikelaneuprising.com/60152/attR27plfxa8pkyH6_large.jpg"
      ],
      "reporter_id": 1
    },
    "60153": {
      "blu_id": 60153,
      "category": "Taxi / Uber / Livery / Lyft",
      "lat": 41.92068518008492,
      "lon": -87.67102593550439,
      "created_at": "2023-09-08T02:04:46.000+00:00",
      "address_street": "2140 North Elston Avenue",
      "address_zip": "60614",
      "neighborhood": null,
      "suburb": "Logan Square",
      "images": [
        "https://feed.bikelaneuprising.com/60153/attDOB73he5UZHbyT_large.jpg",
        "https://feed.bikelaneuprising.com/60153/attn1HPLy5NQoumUG_large.jpg"
      ],
      "reporter_id": 1
    },
    "60154": {
      "blu_id": 60154,
      "category": "Company Vehicle",
      "lat": 41.9006742,
      "lon": -87.6373866,
      "created_at": "2023-09-08T02:10:55.000+00:00",
      "address_street": " North Orleans Street",
      "address_zip": "60610",
      "neighborhood": "Chicago River North",
      "suburb": "Near North Side",
      "images": [
        "https://feed.bikelaneuprising.com/60154/attRDS693sYfCAMWA_large.jpg",
        "https://feed.bikelaneuprising.com/60154/attzjrsyS0kps7usW_large.jpg",
        "https://feed.bikelaneuprising.com/60154/attOsGy1WYXzkQLKu_large.jpg"
      ],
      "reporter_id": 1
    },
    "60155": {
      "blu_id": 60155,
      "category": "Private Owner Vehicle",
      "lat": 41.88564,
      "lon": -87.66393,
      "created_at": "2023-09-08T02:33:20.000+00:00",
      "address_street": "1438-1440 West Lake Street",
      "address_zip": "60607",
      "neighborhood": null,
      "suburb": "Near West Side",
      "images": [
        "https://feed.bikelaneuprising.com/60155/attSRs3HmiDeuR8be_large.jpg"
      ],
      "reporter_id": 1
    },
    "60161": {
      "blu_id": 60161,
      "category": "Company Vehicle",
      "lat": 41.92569,
      "lon": -87.67811,
      "created_at": "2023-09-08T12:41:27.000+00:00",
      "address_street": "2445 North Elston Avenue",
      "address_zip": "60647",
      "neighborhood": null,
      "suburb": "Logan Square",
      "images": [],
      "reporter_id": 1
    },
    "60162": {
      "blu_id": 60162,
      "category": "Company Vehicle",
      "lat": 41.88147222222222,
      "lon": -87.64500833333334,
      "created_at": "2023-09-08T14:01:03.000+00:00",
      "address_street": " West Madison Street",
      "address_zip": "60661",
      "neighborhood": "Greektown",
      "suburb": "Near West Side",
      "images": [
        "https://feed.bikelaneuprising.com/60162/attdGXRWbguzZOqTf_large.jpg"
      ],
      "reporter_id": 1
    },
    "60164": {
      "blu_id": 60164,
      "category": "Company Vehicle",
      "lat": 41.90061166666667,
      "lon": -87.696625,
      "created_at": "2023-09-08T15:20:28.000+00:00",
      "address_street": "1045 North California Avenue",
      "address_zip": "60625",
      "neighborhood": null,
      "suburb": "West Town",
      "images": [
        "https://feed.bikelaneuprising.com/60164/attAZJjq0qxlrGugv_large.jpg",
        "https://feed.bikelaneuprising.com/60164/attrPekKQWCxm87jy_large.jpg",
        "https://feed.bikelaneuprising.com/60164/attnKJSJDg4epMASh_large.jpg"
      ],
      "reporter_id": 1
    },
    "60186": {
      "blu_id": 60186,
      "category": "Private Owner Vehicle",
      "lat": 41.87487,
      "lon": -87.64317,
      "created_at": "2023-09-08T16:46:28.000+00:00",
      "address_street": "630 West Harrison Street",
      "address_zip": "60607",
      "neighborhood": "Greektown",
      "suburb": "Near West Side",
      "images": [
        "https://feed.bikelaneuprising.com/60186/attwPC6DjiiULmrKT_large.jpg"
      ],
      "reporter_id": 1
    },
    "60188": {
      "blu_id": 60188,
      "category": "Private Owner Vehicle",
      "lat": 41.86592,
      "lon": -87.65468,
      "created_at": "2023-09-08T16:49:01.000+00:00",
      "address_street": "1244 South Blue Island Avenue",
      "address_zip": "60608",
      "neighborhood": "University Village/Little Italy",
      "suburb": "Near West Side",
      "images": [
        "https://feed.bikelaneuprising.com/60188/attXjPLJ3RGZnocFa_large.jpg"
      ],
      "reporter_id": 1
    },
    "60192": {
      "blu_id": 60192,
      "category": "Company Vehicle",
      "lat": 41.895916666666665,
      "lon": -87.67562833333334,
      "created_at": "2023-09-08T17:06:04.000+00:00",
      "address_street": "1925 West Chicago Avenue",
      "address_zip": "60651",
      "neighborhood": "Ukrainian Village",
      "suburb": "West Town",
      "images": [
        "https://feed.bikelaneuprising.com/60192/attHyxBpJsJTy1BD2_large.jpg",
        "https://feed.bikelaneuprising.com/60192/attoLYSQ9FT1xZg1v_large.jpg"
      ],
      "reporter_id": 1
    },
    "60203": {
      "blu_id": 60203,
      "category": "Private Owner Vehicle",
      "lat": 41.90065833333333,
      "lon": -87.69663333333334,
      "created_at": "2023-09-08T17:39:02.000+00:00",
      "address_street": "1047 North California Avenue",
      "address_zip": "60625",
      "neighborhood": null,
      "suburb": "West Town",
      "images": [
        "https://feed.bikelaneuprising.com/60203/attN7FjZBQeHcfk2d_large.jpg",
        "https://feed.bikelaneuprising.com/60203/attyUN2fpTFmku1kY_large.jpg"
      ],
      "reporter_id": 1
    },
    "60209": {
      "blu_id": 60209,
      "category": "Company Vehicle",
      "lat": 41.894311351025394,
      "lon": -87.65255013886846,
      "created_at": "2023-09-08T19:15:08.000+00:00",
      "address_street": "694 North Milwaukee Avenue",
      "address_zip": "60642",
      "neighborhood": null,
      "suburb": "West Town",
      "images": [
        "https://feed.bikelaneuprising.com/60209/attuKm5gKNq2uBqoy_large.jpg",
        "https://feed.bikelaneuprising.com/60209/attt3I5NLL1yjEx5s_large.jpg"
      ],
      "reporter_id": 1
    },
    "60210": {
      "blu_id": 60210,
      "category": "Private Owner Vehicle",
      "lat": 41.877266666666664,
      "lon": -87.640245,
      "created_at": "2023-09-08T21:01:18.000+00:00",
      "address_street": "320 South Canal Street",
      "address_zip": "60606",
      "neighborhood": "Greektown",
      "suburb": "Near West Side",
      "images": [
        "https://feed.bikelaneuprising.com/60210/att266xH1XoVrMsVs_large.jpg"
      ],
      "reporter_id": 1
    },
    "60213": {
      "blu_id": 60213,
      "category": "Private Owner Vehicle",
      "lat": 41.87345,
      "lon": -87.67006,
      "created_at": "2023-09-08T21:42:40.000+00:00",
      "address_street": "1725 West Harrison Street",
      "address_zip": "60612",
      "neighborhood": "Illinois Medical District",
      "suburb": "Near West Side",
      "images": [
        "https://feed.bikelaneuprising.com/60213/att8YcU8hW4HktAcs_large.jpg",
        "https://feed.bikelaneuprising.com/60213/attEHedJqtfSLv2oQ_large.jpg",
        "https://feed.bikelaneuprising.com/60213/attU7fsUrThHyyfpW_large.jpg"
      ],
      "reporter_id": 1
    },
    "60214": {
      "blu_id": 60214,
      "category": "Private Owner Vehicle",
      "lat": 41.87405288372244,
      "lon": -87.66977357745279,
      "created_at": "2023-09-08T21:44:56.000+00:00",
      "address_street": "1653 West Congress Parkway",
      "address_zip": "60612",
      "neighborhood": "Illinois Medical District",
      "suburb": "Near West Side",
      "images": [
        "https://feed.bikelaneuprising.com/60214/attBAZMGQUc4I3Wx6_large.jpg",
        "https://feed.bikelaneuprising.com/60214/attHaTQ0GUdz2o0oX_large.jpg"
      ],
      "reporter_id": 1
    },
    "60215": {
      "blu_id": 60215,
      "category": "Other  (damaged lane / snow / debris / pedestrian / etc.)",
      "lat": 41.90301465079688,
      "lon": -87.67233769024392,
      "created_at": "2023-09-08T21:46:18.000+00:00",
      "address_street": "1147 North Wood Street",
      "address_zip": "60622",
      "neighborhood": "Wicker Park",
      "suburb": "West Town",
      "images": [
        "https://feed.bikelaneuprising.com/60215/attU1Q4CYZ1t1bOjc_large.jpg",
        "https://feed.bikelaneuprising.com/60215/attsFdnOirfJx912S_large.jpg"
      ],
      "reporter_id": 1
    },
    "60216": {
      "blu_id": 60216,
      "category": "Private Owner Vehicle",
      "lat": 41.90304,
      "lon": -87.67217,
      "created_at": "2023-09-08T21:47:42.000+00:00",
      "address_street": "1147 North Wood Street",
      "address_zip": "60622",
      "neighborhood": "Wicker Park",
      "suburb": "West Town",
      "images": [
        "https://feed.bikelaneuprising.com/60216/att3YZYyNhzJlyNqT_large.jpg"
      ],
      "reporter_id": 1
    },
    "60224": {
      "blu_id": 60224,
      "category": "Private Owner Vehicle",
      "lat": 41.935823899999995,
      "lon": -87.66338559972223,
      "created_at": "2023-09-08T23:18:24.000+00:00",
      "address_street": "2966-2968 North Lincoln Avenue",
      "address_zip": "60657",
      "neighborhood": null,
      "suburb": "Lake View",
      "images": [
        "https://feed.bikelaneuprising.com/60224/attc3Zyo9tJWOOCPR_large.jpg",
        "https://feed.bikelaneuprising.com/60224/attvnrMumb1CiJ2vo_large.jpg"
      ],
      "reporter_id": 1
    },
    "60225": {
      "blu_id": 60225,
      "category": "Private Owner Vehicle",
      "lat": 41.91187,
      "lon": -87.65077166666667,
      "created_at": "2023-09-08T23:22:53.000+00:00",
      "address_street": "1645-1647 North Clybourn Avenue",
      "address_zip": "60614",
      "neighborhood": null,
      "suburb": "Lincoln Park",
      "images": [
        "https://feed.bikelaneuprising.com/60225/attirOd6MQGERUrDS_large.jpg"
      ],
      "reporter_id": 1
    },
    "60226": {
      "blu_id": 60226,
      "category": "Taxi / Uber / Livery / Lyft",
      "lat": 41.937375,
      "lon": -87.70746666666666,
      "created_at": "2023-09-08T23:24:28.000+00:00",
      "address_street": "3057-3059 North Kedzie Avenue",
      "address_zip": "60625",
      "neighborhood": null,
      "suburb": "Avondale",
      "images": [
        "https://feed.bikelaneuprising.com/60226/attxZgDCIo3EY9XrB_large.jpg"
      ],
      "reporter_id": 1
    },
    "60227": {
      "blu_id": 60227,
      "category": "Company Vehicle",
      "lat": 41.94242833333333,
      "lon": -87.707825,
      "created_at": "2023-09-08T23:25:31.000+00:00",
      "address_street": "3350 North Kedzie Avenue",
      "address_zip": "60618",
      "neighborhood": null,
      "suburb": "Avondale",
      "images": [
        "https://feed.bikelaneuprising.com/60227/attSth9sBU3kX91M8_large.jpg"
      ],
      "reporter_id": 1
    },
    "60228": {
      "blu_id": 60228,
      "category": "Private Owner Vehicle",
      "lat": 41.93944166666667,
      "lon": -87.69953833333334,
      "created_at": "2023-09-08T23:26:25.000+00:00",
      "address_street": "2845 West Belmont Avenue",
      "address_zip": "60618",
      "neighborhood": null,
      "suburb": "Avondale",
      "images": [
        "https://feed.bikelaneuprising.com/60228/atti6bjtJwj0ROOID_large.jpg",
        "https://feed.bikelaneuprising.com/60228/attMkWuPS4Cbf4IlA_large.jpg"
      ],
      "reporter_id": 1
    },
    "60229": {
      "blu_id": 60229,
      "category": "Company Vehicle",
      "lat": 41.93938333333333,
      "lon": -87.698945,
      "created_at": "2023-09-08T23:27:02.000+00:00",
      "address_street": "2819 West Belmont Avenue",
      "address_zip": "60618",
      "neighborhood": null,
      "suburb": "Avondale",
      "images": [
        "https://feed.bikelaneuprising.com/60229/attUDQT2OvvHH3ats_large.jpg",
        "https://feed.bikelaneuprising.com/60229/attRmlAT5Qn6XAJYB_large.jpg"
      ],
      "reporter_id": 1
    },
    "60230": {
      "blu_id": 60230,
      "category": "Private Owner Vehicle",
      "lat": 41.929750474570426,
      "lon": -87.70737175780802,
      "created_at": "2023-09-09T00:38:26.000+00:00",
      "address_street": "2645 North Kedzie Avenue",
      "address_zip": "60625",
      "neighborhood": null,
      "suburb": "Logan Square",
      "images": [
        "https://feed.bikelaneuprising.com/60230/attVzW8c8itmq97cI_large.jpg"
      ],
      "reporter_id": 1
    },
    "60231": {
      "blu_id": 60231,
      "category": "Private Owner Vehicle",
      "lat": 41.929721666666666,
      "lon": -87.70735833333333,
      "created_at": "2023-09-09T00:48:26.000+00:00",
      "address_street": "2645 North Kedzie Avenue",
      "address_zip": "60625",
      "neighborhood": null,
      "suburb": "Logan Square",
      "images": [
        "https://feed.bikelaneuprising.com/60231/attkLRo9n3GmVQMxy_large.jpg"
      ],
      "reporter_id": 1
    },
    "60236": {
      "blu_id": 60236,
      "category": "Private Owner Vehicle",
      "lat": 41.87014629767657,
      "lon": -87.64703013002872,
      "created_at": "2023-09-09T15:15:01.000+00:00",
      "address_street": "1200 West Harrison Street",
      "address_zip": "60607",
      "neighborhood": null,
      "suburb": "Near West Side",
      "images": [
        "https://feed.bikelaneuprising.com/60236/attALqdqlxqjczCIA_large.jpg"
      ],
      "reporter_id": 1
    },
    "60237": {
      "blu_id": 60237,
      "category": "Private Owner Vehicle",
      "lat": 41.87379681736226,
      "lon": -87.64724873006344,
      "created_at": "2023-09-09T15:16:21.000+00:00",
      "address_street": "1200 West Harrison Street",
      "address_zip": "60607",
      "neighborhood": null,
      "suburb": "Near West Side",
      "images": [
        "https://feed.bikelaneuprising.com/60237/attRE2nAOn1gbLK9K_large.jpg"
      ],
      "reporter_id": 1
    },
    "60238": {
      "blu_id": 60238,
      "category": "Private Owner Vehicle",
      "lat": 41.84643833333333,
      "lon": -87.64641666666667,
      "created_at": "2023-09-09T16:54:48.000+00:00",
      "address_street": "2521 South Halsted Street",
      "address_zip": "60616",
      "neighborhood": "South Branch Addition",
      "suburb": "Bridgeport",
      "images": [
        "https://feed.bikelaneuprising.com/60238/attROTRBhTdCb0FPh_large.jpg"
      ],
      "reporter_id": 1
    },
    "60239": {
      "blu_id": 60239,
      "category": "Private Owner Vehicle",
      "lat": 41.899605,
      "lon": -87.67672,
      "created_at": "2023-09-09T17:01:59.000+00:00",
      "address_street": "1001 North Damen Avenue",
      "address_zip": "60625",
      "neighborhood": "Ukrainian Village",
      "suburb": "West Town",
      "images": [
        "https://feed.bikelaneuprising.com/60239/attSX5iMykhpsCbLk_large.jpg",
        "https://feed.bikelaneuprising.com/60239/attlib5MHY3aK0qGk_large.jpg"
      ],
      "reporter_id": 1
    },
    "60240": {
      "blu_id": 60240,
      "category": "Company Vehicle",
      "lat": 41.931252,
      "lon": -87.770122,
      "created_at": "2023-09-09T17:03:42.000+00:00",
      "address_street": "5734-5744 West Diversey Avenue",
      "address_zip": "60707",
      "neighborhood": "Belmont Cragin",
      "suburb": "Belmont Cragin",
      "images": [
        "https://feed.bikelaneuprising.com/60240/attyjvhexVbC5wgO6_large.jpg"
      ],
      "reporter_id": 1
    },
    "60242": {
      "blu_id": 60242,
      "category": "Taxi / Uber / Livery / Lyft",
      "lat": 41.96130277777778,
      "lon": -87.69572222222223,
      "created_at": "2023-09-09T18:12:03.000+00:00",
      "address_street": "2656 West Montrose Avenue",
      "address_zip": "60625",
      "neighborhood": "Ravenswood Manor",
      "suburb": "Albany Park",
      "images": [
        "https://feed.bikelaneuprising.com/60242/attLyVGnqj3RQ6OGS_large.jpg"
      ],
      "reporter_id": 1
    },
    "60243": {
      "blu_id": 60243,
      "category": "Private Owner Vehicle",
      "lat": 41.9299,
      "lon": -87.65622,
      "created_at": "2023-09-09T19:29:47.000+00:00",
      "address_street": "1109-1111 West Drummond Place",
      "address_zip": "60614",
      "neighborhood": null,
      "suburb": "Lincoln Park",
      "images": [
        "https://feed.bikelaneuprising.com/60243/attsqQ7ierNRMIld9_large.jpg"
      ],
      "reporter_id": 1
    },
    "60244": {
      "blu_id": 60244,
      "category": "Private Owner Vehicle",
      "lat": 41.925275,
      "lon": -87.64813833333334,
      "created_at": "2023-09-09T19:30:50.000+00:00",
      "address_street": " West Fullerton Avenue",
      "address_zip": "60614",
      "neighborhood": null,
      "suburb": "Lincoln Park",
      "images": [
        "https://feed.bikelaneuprising.com/60244/attebuEpirqNGZxl6_large.jpg"
      ],
      "reporter_id": 1
    },
    "60251": {
      "blu_id": 60251,
      "category": "Taxi / Uber / Livery / Lyft",
      "lat": 41.88227,
      "lon": -87.647409,
      "created_at": "2023-09-09T21:54:01.000+00:00",
      "address_street": " North Halsted Street",
      "address_zip": "60661",
      "neighborhood": "Greektown",
      "suburb": "Near West Side",
      "images": [
        "https://feed.bikelaneuprising.com/60251/att6w4BmVzVcxnr8c_large.jpg"
      ],
      "reporter_id": 1
    },
    "60253": {
      "blu_id": 60253,
      "category": "Company Vehicle",
      "lat": 41.961108333333335,
      "lon": -87.67897833333333,
      "created_at": "2023-09-09T23:28:36.000+00:00",
      "address_street": "4349-4351 North Damen Avenue",
      "address_zip": "9020",
      "neighborhood": "Cuyler",
      "suburb": null,
      "images": [
        "https://feed.bikelaneuprising.com/60253/attKo51sRJgAhNood_large.jpg"
      ],
      "reporter_id": 1
    },
    "60255": {
      "blu_id": 60255,
      "category": "Company Vehicle",
      "lat": 41.90773333333333,
      "lon": -87.67327222222222,
      "created_at": "2023-09-09T23:32:17.000+00:00",
      "address_street": "1425 North Milwaukee Avenue",
      "address_zip": "60622",
      "neighborhood": "Wicker Park",
      "suburb": "West Town",
      "images": [
        "https://feed.bikelaneuprising.com/60255/att4rFzbPm5voSCx9_large.jpg",
        "https://feed.bikelaneuprising.com/60255/attDq0UoXtX9KctgL_large.jpg"
      ],
      "reporter_id": 1
    },
    "60256": {
      "blu_id": 60256,
      "category": "Company Vehicle",
      "lat": 41.90810833333333,
      "lon": -87.67388055555556,
      "created_at": "2023-09-09T23:34:02.000+00:00",
      "address_street": "1443 North Milwaukee Avenue",
      "address_zip": "60622",
      "neighborhood": "Wicker Park",
      "suburb": "West Town",
      "images": [
        "https://feed.bikelaneuprising.com/60256/attciGPmepA96cvAS_large.jpg",
        "https://feed.bikelaneuprising.com/60256/atta4Ft3AyYeKPY6Q_large.jpg",
        "https://feed.bikelaneuprising.com/60256/attpL5S74Sbdk5ZqW_large.jpg"
      ],
      "reporter_id": 1
    },
    "60257": {
      "blu_id": 60257,
      "category": "Private Owner Vehicle",
      "lat": 41.95616666666667,
      "lon": -87.70810833333333,
      "created_at": "2023-09-09T23:39:52.000+00:00",
      "address_street": "4110-4112 North Kedzie Avenue",
      "address_zip": "60625",
      "neighborhood": null,
      "suburb": "Irving Park",
      "images": [
        "https://feed.bikelaneuprising.com/60257/attWMTkbGjf7ZGfJ6_large.jpg"
      ],
      "reporter_id": 1
    },
    "60258": {
      "blu_id": 60258,
      "category": "Municipal (city) Vehicle - includes USPS",
      "lat": 41.9155,
      "lon": -87.70690333333333,
      "created_at": "2023-09-10T00:31:47.000+00:00",
      "address_street": "1857 North Kedzie Avenue",
      "address_zip": "60647",
      "neighborhood": "Simons",
      "suburb": "Logan Square",
      "images": [
        "https://feed.bikelaneuprising.com/60258/attwZvVLET15BLt9r_large.jpg"
      ],
      "reporter_id": 1
    },
    "60259": {
      "blu_id": 60259,
      "category": "Private Owner Vehicle",
      "lat": 41.914995,
      "lon": -87.70694666666667,
      "created_at": "2023-09-10T00:33:17.000+00:00",
      "address_street": "1844 North Kedzie Avenue",
      "address_zip": "60647",
      "neighborhood": "Simons",
      "suburb": "Logan Square",
      "images": [
        "https://feed.bikelaneuprising.com/60259/attc4Ai57t6pidPX1_large.jpg"
      ],
      "reporter_id": 1
    },
    "60260": {
      "blu_id": 60260,
      "category": "Other  (damaged lane / snow / debris / pedestrian / etc.)",
      "lat": 41.869796666666666,
      "lon": -87.64154166666667,
      "created_at": "2023-09-10T02:45:51.000+00:00",
      "address_street": "550 West Taylor Street",
      "address_zip": "60607",
      "neighborhood": null,
      "suburb": "Near West Side",
      "images": [
        "https://feed.bikelaneuprising.com/60260/attrwSaPUOg416Api_large.jpg"
      ],
      "reporter_id": 1
    },
    "60261": {
      "blu_id": 60261,
      "category": "Private Owner Vehicle",
      "lat": 41.85877,
      "lon": -87.646775,
      "created_at": "2023-09-10T02:52:25.000+00:00",
      "address_street": "1714-1716 South Halsted Street",
      "address_zip": "60607",
      "neighborhood": null,
      "suburb": "Lower West Side",
      "images": [
        "https://feed.bikelaneuprising.com/60261/attdMStx12RPYWvmr_large.jpg"
      ],
      "reporter_id": 1
    },
    "60262": {
      "blu_id": 60262,
      "category": "Private Owner Vehicle",
      "lat": 41.846475,
      "lon": -87.64653,
      "created_at": "2023-09-10T02:57:06.000+00:00",
      "address_street": "2514-2520 South Halsted Street",
      "address_zip": "60616",
      "neighborhood": "South Branch Addition",
      "suburb": "Bridgeport",
      "images": [
        "https://feed.bikelaneuprising.com/60262/attXZ5r2FMWpXHI4k_large.jpg"
      ],
      "reporter_id": 1
    },
    "60263": {
      "blu_id": 60263,
      "category": "Private Owner Vehicle",
      "lat": 41.96774166666667,
      "lon": -87.65622,
      "created_at": "2023-09-10T04:10:01.000+00:00",
      "address_street": "4711 North Kenmore Avenue",
      "address_zip": "60640",
      "neighborhood": "Asia on Argyle",
      "suburb": "Uptown",
      "images": [
        "https://feed.bikelaneuprising.com/60263/attuZW467iRySPqSB_large.jpg"
      ],
      "reporter_id": 1
    },
    "60266": {
      "blu_id": 60266,
      "category": "Municipal (city) Vehicle - includes USPS",
      "lat": 41.88437,
      "lon": -87.63851166666667,
      "created_at": "2023-09-10T04:23:05.000+00:00",
      "address_street": "100 West Washington Street",
      "address_zip": "60606",
      "neighborhood": null,
      "suburb": "Near West Side",
      "images": [
        "https://feed.bikelaneuprising.com/60266/attz9ot6mHXYEtp25_large.jpg"
      ],
      "reporter_id": 1
    },
    "60268": {
      "blu_id": 60268,
      "category": "Company Vehicle",
      "lat": 41.94807,
      "lon": -87.64914,
      "created_at": "2023-09-10T07:30:15.000+00:00",
      "address_street": "3619-3625 North Halsted Street",
      "address_zip": "60657",
      "neighborhood": null,
      "suburb": "Lake View",
      "images": [
        "https://feed.bikelaneuprising.com/60268/attBiIwXKFzIpvFfM_large.jpg"
      ],
      "reporter_id": 1
    },
    "60269": {
      "blu_id": 60269,
      "category": "Company Vehicle",
      "lat": 41.88262,
      "lon": -87.66914,
      "created_at": "2023-09-10T07:31:38.000+00:00",
      "address_street": "35-45 North Paulina Street",
      "address_zip": "60622",
      "neighborhood": null,
      "suburb": "Near West Side",
      "images": [
        "https://feed.bikelaneuprising.com/60269/attlEWrrD1tKSHL37_large.jpg"
      ],
      "reporter_id": 1
    },
    "60270": {
      "blu_id": 60270,
      "category": "Private Owner Vehicle",
      "lat": 41.967911666666666,
      "lon": -87.659125,
      "created_at": "2023-09-10T17:02:08.000+00:00",
      "address_street": " North Broadway",
      "address_zip": "60640",
      "neighborhood": "Asia on Argyle",
      "suburb": "Uptown",
      "images": [
        "https://feed.bikelaneuprising.com/60270/attMaacu1NHqUAxXC_large.jpg"
      ],
      "reporter_id": 1
    },
    "60271": {
      "blu_id": 60271,
      "category": "Private Owner Vehicle",
      "lat": 41.99038,
      "lon": -87.67091,
      "created_at": "2023-09-10T17:03:38.000+00:00",
      "address_street": "5961-5981 North Ridge Avenue",
      "address_zip": "60660",
      "neighborhood": "Edgewater Glen",
      "suburb": "Edgewater",
      "images": [],
      "reporter_id": 1
    },
    "60272": {
      "blu_id": 60272,
      "category": "Private Owner Vehicle",
      "lat": 41.964133333333336,
      "lon": -87.65680833333333,
      "created_at": "2023-09-10T17:03:45.000+00:00",
      "address_street": "4520-4570 North Broadway",
      "address_zip": "60640",
      "neighborhood": null,
      "suburb": "Uptown",
      "images": [
        "https://feed.bikelaneuprising.com/60272/att7G0zaDQXJGM8BG_large.jpg"
      ],
      "reporter_id": 1
    },
    "60273": {
      "blu_id": 60273,
      "category": "Private Owner Vehicle",
      "lat": 41.93998333333333,
      "lon": -87.65342,
      "created_at": "2023-09-10T17:06:53.000+00:00",
      "address_street": " West Belmont Avenue",
      "address_zip": "60657",
      "neighborhood": null,
      "suburb": "Lake View",
      "images": [
        "https://feed.bikelaneuprising.com/60273/attSjIRlW2Qpjpjhl_large.jpg"
      ],
      "reporter_id": 1
    },
    "60274": {
      "blu_id": 60274,
      "category": "Municipal (city) Vehicle - includes USPS",
      "lat": 41.93998333333333,
      "lon": -87.65342,
      "created_at": "2023-09-10T17:07:44.000+00:00",
      "address_street": " West Belmont Avenue",
      "address_zip": "60657",
      "neighborhood": null,
      "suburb": "Lake View",
      "images": [
        "https://feed.bikelaneuprising.com/60274/attWcErN7ejICFW8F_large.jpg",
        "https://feed.bikelaneuprising.com/60274/att908vCsF6jRGPpN_large.jpg"
      ],
      "reporter_id": 1
    },
    "60275": {
      "blu_id": 60275,
      "category": "Private Owner Vehicle",
      "lat": 41.990364,
      "lon": -87.67016,
      "created_at": "2023-09-10T17:09:20.000+00:00",
      "address_street": "5970 North Clark Street",
      "address_zip": "60660",
      "neighborhood": "Edgewater Glen",
      "suburb": "Edgewater",
      "images": [
        "https://feed.bikelaneuprising.com/60275/attR08J0AcHNYQKzu_large.jpg",
        "https://feed.bikelaneuprising.com/60275/attwZk9ixHDCKp1W1_large.jpg",
        "https://feed.bikelaneuprising.com/60275/att59ysR5toGa8usr_large.jpg"
      ],
      "reporter_id": 1
    },
    "60276": {
      "blu_id": 60276,
      "category": "Private Owner Vehicle",
      "lat": 41.927096666666664,
      "lon": -87.65066666666667,
      "created_at": "2023-09-10T17:09:52.000+00:00",
      "address_street": "845 West Altgeld Street",
      "address_zip": "60614",
      "neighborhood": null,
      "suburb": "Lincoln Park",
      "images": [
        "https://feed.bikelaneuprising.com/60276/attaldCLyU1nXR2l5_large.jpg",
        "https://feed.bikelaneuprising.com/60276/attsLLEehbEKscwSH_large.jpg"
      ],
      "reporter_id": 1
    },
    "60277": {
      "blu_id": 60277,
      "category": "Private Owner Vehicle",
      "lat": 41.90200004749012,
      "lon": -87.63136406608133,
      "created_at": "2023-09-10T17:35:13.000+00:00",
      "address_street": "1100-1111 North Clark Street",
      "address_zip": "60610",
      "neighborhood": "Gold Coast",
      "suburb": "Near North Side",
      "images": [
        "https://feed.bikelaneuprising.com/60277/attix6WfjcbATiabz_large.jpg"
      ],
      "reporter_id": 1
    },
    "60278": {
      "blu_id": 60278,
      "category": "Municipal (city) Vehicle - includes USPS",
      "lat": 41.87418522203633,
      "lon": -87.66929067529092,
      "created_at": "2023-09-10T18:26:00.000+00:00",
      "address_street": "1653 West Congress Parkway",
      "address_zip": "60612",
      "neighborhood": "Illinois Medical District",
      "suburb": "Near West Side",
      "images": [
        "https://feed.bikelaneuprising.com/60278/attOmLw9JV35JVrPY_large.jpg",
        "https://feed.bikelaneuprising.com/60278/attx5TyQowVvn9HHh_large.jpg"
      ],
      "reporter_id": 1
    },
    "60279": {
      "blu_id": 60279,
      "category": "Company Vehicle",
      "lat": 41.946149,
      "lon": -87.664031,
      "created_at": "2023-09-10T23:59:41.000+00:00",
      "address_street": "3526-3530 North Southport Avenue",
      "address_zip": "60613",
      "neighborhood": null,
      "suburb": "Lake View",
      "images": [
        "https://feed.bikelaneuprising.com/60279/attfFY3sgJ69je7G5_large.jpg",
        "https://feed.bikelaneuprising.com/60279/attg4eBeXL8juy2Zx_large.jpg"
      ],
      "reporter_id": 1
    },
    "60280": {
      "blu_id": 60280,
      "category": "Company Vehicle",
      "lat": 41.91616333333333,
      "lon": -87.66816166666666,
      "created_at": "2023-09-11T01:38:08.000+00:00",
      "address_street": " West Cortland Street",
      "address_zip": "60622",
      "neighborhood": null,
      "suburb": "Logan Square",
      "images": [
        "https://feed.bikelaneuprising.com/60280/att48nyEaHy92YKeD_large.jpg"
      ],
      "reporter_id": 1
    },
    "60290": {
      "blu_id": 60290,
      "category": "Private Owner Vehicle",
      "lat": 41.88455193042236,
      "lon": -87.62729488270176,
      "created_at": "2023-09-11T12:45:22.000+00:00",
      "address_street": "8 East Randolph Street",
      "address_zip": "60601",
      "neighborhood": null,
      "suburb": "Loop",
      "images": [],
      "reporter_id": 1
    },
    "60293": {
      "blu_id": 60293,
      "category": "Private Owner Vehicle",
      "lat": 41.89896210025516,
      "lon": -87.64783789778302,
      "created_at": "2023-09-11T13:44:43.000+00:00",
      "address_street": " North Halsted Street",
      "address_zip": "60642",
      "neighborhood": "Chicago River North",
      "suburb": "Near North Side",
      "images": [],
      "reporter_id": 1
    },
    "60294": {
      "blu_id": 60294,
      "category": "Private Owner Vehicle",
      "lat": 41.90011178229149,
      "lon": -87.64795242941115,
      "created_at": "2023-09-11T13:45:26.000+00:00",
      "address_street": "900-920 North Halsted Street",
      "address_zip": "60642",
      "neighborhood": "Chicago River North",
      "suburb": "Near North Side",
      "images": [],
      "reporter_id": 1
    },
    "60295": {
      "blu_id": 60295,
      "category": "Private Owner Vehicle",
      "lat": 41.8996623691378,
      "lon": -87.64793421239364,
      "created_at": "2023-09-11T13:45:52.000+00:00",
      "address_street": "900-920 North Halsted Street",
      "address_zip": "60642",
      "neighborhood": "Chicago River North",
      "suburb": "Near North Side",
      "images": [],
      "reporter_id": 1
    },
    "60296": {
      "blu_id": 60296,
      "category": "Private Owner Vehicle",
      "lat": 41.899038136723064,
      "lon": -87.64789777805996,
      "created_at": "2023-09-11T13:46:19.000+00:00",
      "address_street": "1011 North Halsted Street",
      "address_zip": "60642",
      "neighborhood": "Chicago River North",
      "suburb": "Near North Side",
      "images": [],
      "reporter_id": 1
    },
    "60297": {
      "blu_id": 60297,
      "category": "Private Owner Vehicle",
      "lat": 41.89888884201065,
      "lon": -87.64789998325806,
      "created_at": "2023-09-11T13:46:45.000+00:00",
      "address_street": " North Halsted Street",
      "address_zip": "60642",
      "neighborhood": "Chicago River North",
      "suburb": "Near North Side",
      "images": [],
      "reporter_id": 1
    },
    "60298": {
      "blu_id": 60298,
      "category": "Municipal (city) Vehicle - includes USPS",
      "lat": 41.90011165092957,
      "lon": -87.64795199437758,
      "created_at": "2023-09-11T13:47:48.000+00:00",
      "address_street": "900-920 North Halsted Street",
      "address_zip": "60642",
      "neighborhood": "Chicago River North",
      "suburb": "Near North Side",
      "images": [],
      "reporter_id": 1
    },
    "60299": {
      "blu_id": 60299,
      "category": "Municipal (city) Vehicle - includes USPS",
      "lat": 41.89966944055464,
      "lon": -87.64792664845946,
      "created_at": "2023-09-11T13:48:19.000+00:00",
      "address_street": "900-920 North Halsted Street",
      "address_zip": "60642",
      "neighborhood": "Chicago River North",
      "suburb": "Near North Side",
      "images": [],
      "reporter_id": 1
    },
    "60300": {
      "blu_id": 60300,
      "category": "Municipal (city) Vehicle - includes USPS",
      "lat": 41.89904459411853,
      "lon": -87.64790420835438,
      "created_at": "2023-09-11T13:48:44.000+00:00",
      "address_street": "1011 North Halsted Street",
      "address_zip": "60642",
      "neighborhood": "Chicago River North",
      "suburb": "Near North Side",
      "images": [],
      "reporter_id": 1
    },
    "60301": {
      "blu_id": 60301,
      "category": "Municipal (city) Vehicle - includes USPS",
      "lat": 41.89870611066403,
      "lon": -87.64789812035944,
      "created_at": "2023-09-11T13:49:31.000+00:00",
      "address_street": " North Halsted Street",
      "address_zip": "60642",
      "neighborhood": "Chicago River North",
      "suburb": "Near North Side",
      "images": [],
      "reporter_id": 1
    },
    "60302": {
      "blu_id": 60302,
      "category": "Private Owner Vehicle",
      "lat": 41.897763009663315,
      "lon": -87.64784790042852,
      "created_at": "2023-09-11T13:50:03.000+00:00",
      "address_street": " North Halsted Street",
      "address_zip": "60642",
      "neighborhood": "Chicago River North",
      "suburb": "Near North Side",
      "images": [],
      "reporter_id": 1
    },
    "60303": {
      "blu_id": 60303,
      "category": "Private Owner Vehicle",
      "lat": 41.983045,
      "lon": -87.706725,
      "created_at": "2023-09-11T14:08:31.000+00:00",
      "address_street": " West Bryn Mawr Avenue",
      "address_zip": "60659",
      "neighborhood": null,
      "suburb": "North Park",
      "images": [
        "https://feed.bikelaneuprising.com/60303/atteRKo6k6reOXSP8_large.jpg"
      ],
      "reporter_id": 1
    },
    "60305": {
      "blu_id": 60305,
      "category": "Private Owner Vehicle",
      "lat": 41.983045,
      "lon": -87.70654166666667,
      "created_at": "2023-09-11T14:09:57.000+00:00",
      "address_street": " West Bryn Mawr Avenue",
      "address_zip": "60659",
      "neighborhood": null,
      "suburb": "North Park",
      "images": [
        "https://feed.bikelaneuprising.com/60305/attmZkT5gwAQzkftv_large.jpg"
      ],
      "reporter_id": 1
    },
    "60306": {
      "blu_id": 60306,
      "category": "Private Owner Vehicle",
      "lat": 41.983055,
      "lon": -87.70646666666667,
      "created_at": "2023-09-11T14:10:35.000+00:00",
      "address_street": " West Bryn Mawr Avenue",
      "address_zip": "60659",
      "neighborhood": null,
      "suburb": "Lincoln Square",
      "images": [
        "https://feed.bikelaneuprising.com/60306/attssFX9as6wRB6yP_large.jpg"
      ],
      "reporter_id": 1
    },
    "60307": {
      "blu_id": 60307,
      "category": "Private Owner Vehicle",
      "lat": 41.98305,
      "lon": -87.70638333333333,
      "created_at": "2023-09-11T14:11:15.000+00:00",
      "address_street": " West Bryn Mawr Avenue",
      "address_zip": "60659",
      "neighborhood": null,
      "suburb": "Lincoln Square",
      "images": [
        "https://feed.bikelaneuprising.com/60307/attP0EiifuF4tM332_large.jpg"
      ],
      "reporter_id": 1
    },
    "60308": {
      "blu_id": 60308,
      "category": "Private Owner Vehicle",
      "lat": 41.98305,
      "lon": -87.7062,
      "created_at": "2023-09-11T14:12:04.000+00:00",
      "address_street": " West Bryn Mawr Avenue",
      "address_zip": "60659",
      "neighborhood": null,
      "suburb": "Lincoln Square",
      "images": [
        "https://feed.bikelaneuprising.com/60308/att9UfyP9100zfWCW_large.jpg"
      ],
      "reporter_id": 1
    },
    "60313": {
      "blu_id": 60313,
      "category": "Company Vehicle",
      "lat": 41.86952,
      "lon": -87.62637,
      "created_at": "2023-09-11T19:31:59.000+00:00",
      "address_street": "1010 South Wabash Avenue",
      "address_zip": "60605",
      "neighborhood": "Printer's Row",
      "suburb": "Loop",
      "images": [
        "https://feed.bikelaneuprising.com/60313/att2uR2SXXlh0zYqu_large.jpg"
      ],
      "reporter_id": 1
    },
    "60315": {
      "blu_id": 60315,
      "category": "Private Owner Vehicle",
      "lat": 41.93835722397362,
      "lon": -87.66381910674512,
      "created_at": "2023-09-11T19:34:37.000+00:00",
      "address_street": "3112 North Southport Avenue",
      "address_zip": "60613",
      "neighborhood": null,
      "suburb": "Lake View",
      "images": [],
      "reporter_id": 1
    },
    "60316": {
      "blu_id": 60316,
      "category": "Company Vehicle",
      "lat": 41.922108333333334,
      "lon": -87.695825,
      "created_at": "2023-09-11T20:03:35.000+00:00",
      "address_street": "2210 North Washtenaw Avenue",
      "address_zip": "60647",
      "neighborhood": "Maplewood",
      "suburb": "Logan Square",
      "images": [
        "https://feed.bikelaneuprising.com/60316/attludJ9Z4I7cvkyY_large.jpg"
      ],
      "reporter_id": 1
    },
    "60319": {
      "blu_id": 60319,
      "category": "Taxi / Uber / Livery / Lyft",
      "lat": 41.891555,
      "lon": -87.62754166666667,
      "created_at": "2023-09-11T22:20:20.000+00:00",
      "address_street": "515 North State Street",
      "address_zip": "60611",
      "neighborhood": "Chicago River North",
      "suburb": "Near North Side",
      "images": [
        "https://feed.bikelaneuprising.com/60319/attDvPnsdUfguwmyT_large.jpg"
      ],
      "reporter_id": 1
    },
    "60320": {
      "blu_id": 60320,
      "category": "Private Owner Vehicle",
      "lat": 41.91472,
      "lon": -87.65456333333333,
      "created_at": "2023-09-11T22:21:37.000+00:00",
      "address_street": "1845-1861 North Clybourn Avenue",
      "address_zip": "60614",
      "neighborhood": null,
      "suburb": "Lincoln Park",
      "images": [
        "https://feed.bikelaneuprising.com/60320/attS5qlIegCBFua9d_large.jpg"
      ],
      "reporter_id": 1
    },
    "60321": {
      "blu_id": 60321,
      "category": "Private Owner Vehicle",
      "lat": 41.92375333333333,
      "lon": -87.65017833333333,
      "created_at": "2023-09-11T22:22:24.000+00:00",
      "address_street": "836 West Belden Avenue",
      "address_zip": "60614",
      "neighborhood": "Mid-North District",
      "suburb": "Lincoln Park",
      "images": [
        "https://feed.bikelaneuprising.com/60321/attpds5LNt1W0N2yk_large.jpg"
      ],
      "reporter_id": 1
    },
    "60322": {
      "blu_id": 60322,
      "category": "Private Owner Vehicle",
      "lat": 41.92505333333333,
      "lon": -87.64837,
      "created_at": "2023-09-11T22:23:02.000+00:00",
      "address_street": "2376-2380 North Lincoln Avenue",
      "address_zip": "60614",
      "neighborhood": "Mid-North District",
      "suburb": "Lincoln Park",
      "images": [
        "https://feed.bikelaneuprising.com/60322/atts7gzLaDcGQe8kv_large.jpg"
      ],
      "reporter_id": 1
    },
    "60323": {
      "blu_id": 60323,
      "category": "Private Owner Vehicle",
      "lat": 41.92395,
      "lon": -87.64633833333333,
      "created_at": "2023-09-11T22:23:40.000+00:00",
      "address_street": " North Orchard Street",
      "address_zip": "60657",
      "neighborhood": null,
      "suburb": "Lincoln Park",
      "images": [
        "https://feed.bikelaneuprising.com/60323/attoIzPUuepji2qFB_large.jpg"
      ],
      "reporter_id": 1
    },
    "60324": {
      "blu_id": 60324,
      "category": "Private Owner Vehicle",
      "lat": 41.87458928477027,
      "lon": -87.6303518269906,
      "created_at": "2023-09-11T23:48:35.000+00:00",
      "address_street": "80 West Harrison Street",
      "address_zip": "60604",
      "neighborhood": "Printer's Row",
      "suburb": "Loop",
      "images": [],
      "reporter_id": 1
    },
    "60325": {
      "blu_id": 60325,
      "category": "Private Owner Vehicle",
      "lat": 41.874355,
      "lon": -87.63030333333333,
      "created_at": "2023-09-11T23:49:15.000+00:00",
      "address_street": "601 South Clark Street",
      "address_zip": "60605",
      "neighborhood": "Printer's Row",
      "suburb": "Loop",
      "images": [
        "https://feed.bikelaneuprising.com/60325/attn1F5PJ2QPW81l1_large.jpg",
        "https://feed.bikelaneuprising.com/60325/attxwa6kQfR4HYO0l_large.jpg"
      ],
      "reporter_id": 1
    },
    "60326": {
      "blu_id": 60326,
      "category": "Private Owner Vehicle",
      "lat": 41.89895725057808,
      "lon": -87.64783652266537,
      "created_at": "2023-09-12T03:11:28.000+00:00",
      "address_street": " North Halsted Street",
      "address_zip": "60642",
      "neighborhood": "Chicago River North",
      "suburb": "Near North Side",
      "images": [],
      "reporter_id": 1
    },
    "60327": {
      "blu_id": 60327,
      "category": "Private Owner Vehicle",
      "lat": 41.89970481072462,
      "lon": -87.64786482984758,
      "created_at": "2023-09-12T03:11:58.000+00:00",
      "address_street": "900-920 North Halsted Street",
      "address_zip": "60642",
      "neighborhood": "Chicago River North",
      "suburb": "Near North Side",
      "images": [],
      "reporter_id": 1
    },
    "60328": {
      "blu_id": 60328,
      "category": "Private Owner Vehicle",
      "lat": 41.900120388755084,
      "lon": -87.64788664623053,
      "created_at": "2023-09-12T03:12:27.000+00:00",
      "address_street": "1000-1040 North Halsted Street",
      "address_zip": "60642",
      "neighborhood": "Chicago River North",
      "suburb": "Near North Side",
      "images": [],
      "reporter_id": 1
    },
    "60329": {
      "blu_id": 60329,
      "category": "Private Owner Vehicle",
      "lat": 41.90081513125109,
      "lon": -87.64791485699918,
      "created_at": "2023-09-12T03:12:57.000+00:00",
      "address_street": "1015 North Halsted Street",
      "address_zip": "60642",
      "neighborhood": "Chicago River North",
      "suburb": "Near North Side",
      "images": [],
      "reporter_id": 1
    },
    "60330": {
      "blu_id": 60330,
      "category": "Private Owner Vehicle",
      "lat": 41.901420625233136,
      "lon": -87.64794075344616,
      "created_at": "2023-09-12T03:13:40.000+00:00",
      "address_street": "1000-1040 North Halsted Street",
      "address_zip": "60642",
      "neighborhood": "Chicago River North",
      "suburb": "Near North Side",
      "images": [],
      "reporter_id": 1
    },
    "60331": {
      "blu_id": 60331,
      "category": "Private Owner Vehicle",
      "lat": 41.96815,
      "lon": -87.75088,
      "created_at": "2023-09-12T12:15:34.000+00:00",
      "address_street": "4912 West Lawrence Avenue",
      "address_zip": "60630",
      "neighborhood": "Montrose",
      "suburb": "Portage Park",
      "images": [
        "https://feed.bikelaneuprising.com/60331/attbbOoqFOpAFIoaB_large.jpg"
      ],
      "reporter_id": 1
    },
    "60332": {
      "blu_id": 60332,
      "category": "Company Vehicle",
      "lat": 41.917525,
      "lon": -87.69574666666666,
      "created_at": "2023-09-12T13:06:42.000+00:00",
      "address_street": "2724 West Armitage Avenue",
      "address_zip": "60647",
      "neighborhood": null,
      "suburb": "Logan Square",
      "images": [
        "https://feed.bikelaneuprising.com/60332/attJ9V5IXVr4ma8dr_large.jpg"
      ],
      "reporter_id": 1
    },
    "60333": {
      "blu_id": 60333,
      "category": "Taxi / Uber / Livery / Lyft",
      "lat": 41.9086336,
      "lon": -87.63458559972223,
      "created_at": "2023-09-12T14:41:22.000+00:00",
      "address_street": "1433 North Wells Street",
      "address_zip": "60614",
      "neighborhood": "Chicago River North",
      "suburb": "Near North Side",
      "images": [
        "https://feed.bikelaneuprising.com/60333/att0BCi2GjXkQRtph_large.jpg"
      ],
      "reporter_id": 1
    },